[
    {
        "amount": 17000,
        "source": {
            "name": "Amersfoort",
            "lon": 5.38469845838697,
            "lat": 52.173656201960775
        },
        "target": {
            "name": "Houten",
            "lon": 5.1816978796531545,
            "lat": 52.00410185651591
        },
        "activity": "Accommodation and food service activities",
        "period": "2021-Q2",
        "type": "primary waste activity"
    },
    {
        "amount": 31280,
        "source": {
            "name": "Amersfoort",
            "lon": 5.38469845838697,
            "lat": 52.173656201960775
        },
        "target": {
            "name": "Soest",
            "lon": 5.296288897360924,
            "lat": 52.15619845723908
        },
        "activity": "Accommodation and food service activities",
        "period": "2021-Q2",
        "type": "primary waste activity"
    },
    {
        "amount": 220,
        "source": {
            "name": "Amersfoort",
            "lon": 5.38469845838697,
            "lat": 52.173656201960775
        },
        "target": {
            "name": "Stichtse Vecht",
            "lon": 5.012587029988806,
            "lat": 52.1769697628483
        },
        "activity": "Accommodation and food service activities",
        "period": "2021-Q2",
        "type": "primary waste activity"
    },
    {
        "amount": 300,
        "source": {
            "name": "Baarn",
            "lon": 5.264152829916488,
            "lat": 52.203834168210875
        },
        "target": {
            "name": "Amersfoort",
            "lon": 5.38469845838697,
            "lat": 52.173656201960775
        },
        "activity": "Accommodation and food service activities",
        "period": "2021-Q2",
        "type": "primary waste activity"
    },
    {
        "amount": 10680,
        "source": {
            "name": "Baarn",
            "lon": 5.264152829916488,
            "lat": 52.203834168210875
        },
        "target": {
            "name": "Beverwijk",
            "lon": 4.654000308885051,
            "lat": 52.48406703093382
        },
        "activity": "Accommodation and food service activities",
        "period": "2021-Q2",
        "type": "primary waste activity"
    },
    {
        "amount": 1500,
        "source": {
            "name": "Baarn",
            "lon": 5.264152829916488,
            "lat": 52.203834168210875
        },
        "target": {
            "name": "Houten",
            "lon": 5.1816978796531545,
            "lat": 52.00410185651591
        },
        "activity": "Accommodation and food service activities",
        "period": "2021-Q2",
        "type": "primary waste activity"
    },
    {
        "amount": 3000,
        "source": {
            "name": "Bunnik",
            "lon": 5.216923375058714,
            "lat": 52.04092103321746
        },
        "target": {
            "name": "Houten",
            "lon": 5.1816978796531545,
            "lat": 52.00410185651591
        },
        "activity": "Accommodation and food service activities",
        "period": "2021-Q2",
        "type": "primary waste activity"
    },
    {
        "amount": 1000,
        "source": {
            "name": "De Bilt",
            "lon": 5.174306046007605,
            "lat": 52.14174148295569
        },
        "target": {
            "name": "Houten",
            "lon": 5.1816978796531545,
            "lat": 52.00410185651591
        },
        "activity": "Accommodation and food service activities",
        "period": "2021-Q2",
        "type": "primary waste activity"
    },
    {
        "amount": 23840,
        "source": {
            "name": "De Bilt",
            "lon": 5.174306046007605,
            "lat": 52.14174148295569
        },
        "target": {
            "name": "Soest",
            "lon": 5.296288897360924,
            "lat": 52.15619845723908
        },
        "activity": "Accommodation and food service activities",
        "period": "2021-Q2",
        "type": "primary waste activity"
    },
    {
        "amount": 3020,
        "source": {
            "name": "De Bilt",
            "lon": 5.174306046007605,
            "lat": 52.14174148295569
        },
        "target": {
            "name": "Stichtse Vecht",
            "lon": 5.012587029988806,
            "lat": 52.1769697628483
        },
        "activity": "Accommodation and food service activities",
        "period": "2021-Q2",
        "type": "primary waste activity"
    },
    {
        "amount": 24780,
        "source": {
            "name": "De Bilt",
            "lon": 5.174306046007605,
            "lat": 52.14174148295569
        },
        "target": {
            "name": "Utrecht",
            "lon": 5.074745542978898,
            "lat": 52.09113829631701
        },
        "activity": "Accommodation and food service activities",
        "period": "2021-Q2",
        "type": "primary waste activity"
    },
    {
        "amount": 42990,
        "source": {
            "name": "De Bilt",
            "lon": 5.174306046007605,
            "lat": 52.14174148295569
        },
        "target": {
            "name": "Zeist",
            "lon": 5.255181841845734,
            "lat": 52.101975704130375
        },
        "activity": "Accommodation and food service activities",
        "period": "2021-Q2",
        "type": "primary waste activity"
    },
    {
        "amount": 604,
        "source": {
            "name": "De Ronde Venen",
            "lon": 4.917327835064022,
            "lat": 52.226343817520174
        },
        "target": {
            "name": "Amersfoort",
            "lon": 5.38469845838697,
            "lat": 52.173656201960775
        },
        "activity": "Accommodation and food service activities",
        "period": "2021-Q2",
        "type": "primary waste activity"
    },
    {
        "amount": 98760,
        "source": {
            "name": "De Ronde Venen",
            "lon": 4.917327835064022,
            "lat": 52.226343817520174
        },
        "target": {
            "name": "De Ronde Venen",
            "lon": 4.917327835064022,
            "lat": 52.226343817520174
        },
        "activity": "Accommodation and food service activities",
        "period": "2021-Q2",
        "type": "primary waste activity"
    },
    {
        "amount": 1000,
        "source": {
            "name": "Houten",
            "lon": 5.1816978796531545,
            "lat": 52.00410185651591
        },
        "target": {
            "name": "Houten",
            "lon": 5.1816978796531545,
            "lat": 52.00410185651591
        },
        "activity": "Accommodation and food service activities",
        "period": "2021-Q2",
        "type": "primary waste activity"
    },
    {
        "amount": 2000,
        "source": {
            "name": "IJsselstein",
            "lon": 5.028778785161066,
            "lat": 52.027715469121475
        },
        "target": {
            "name": "Houten",
            "lon": 5.1816978796531545,
            "lat": 52.00410185651591
        },
        "activity": "Accommodation and food service activities",
        "period": "2021-Q2",
        "type": "primary waste activity"
    },
    {
        "amount": 47980,
        "source": {
            "name": "IJsselstein",
            "lon": 5.028778785161066,
            "lat": 52.027715469121475
        },
        "target": {
            "name": "Montfoort",
            "lon": 4.944044638221137,
            "lat": 52.04771077081319
        },
        "activity": "Accommodation and food service activities",
        "period": "2021-Q2",
        "type": "primary waste activity"
    },
    {
        "amount": 800,
        "source": {
            "name": "IJsselstein",
            "lon": 5.028778785161066,
            "lat": 52.027715469121475
        },
        "target": {
            "name": "Oost Gelre",
            "lon": 6.5757533647270066,
            "lat": 52.009833888394134
        },
        "activity": "Accommodation and food service activities",
        "period": "2021-Q2",
        "type": "primary waste activity"
    },
    {
        "amount": 760,
        "source": {
            "name": "IJsselstein",
            "lon": 5.028778785161066,
            "lat": 52.027715469121475
        },
        "target": {
            "name": "Woerden",
            "lon": 4.8988871248707655,
            "lat": 52.10694088575098
        },
        "activity": "Accommodation and food service activities",
        "period": "2021-Q2",
        "type": "primary waste activity"
    },
    {
        "amount": 2000,
        "source": {
            "name": "Leerdam",
            "lon": 5.085933891047325,
            "lat": 51.90284850758226
        },
        "target": {
            "name": "Houten",
            "lon": 5.1816978796531545,
            "lat": 52.00410185651591
        },
        "activity": "Accommodation and food service activities",
        "period": "2021-Q2",
        "type": "primary waste activity"
    },
    {
        "amount": 1000,
        "source": {
            "name": "Leusden",
            "lon": 5.416462425689729,
            "lat": 52.12221994032962
        },
        "target": {
            "name": "Houten",
            "lon": 5.1816978796531545,
            "lat": 52.00410185651591
        },
        "activity": "Accommodation and food service activities",
        "period": "2021-Q2",
        "type": "primary waste activity"
    },
    {
        "amount": 2560,
        "source": {
            "name": "Leusden",
            "lon": 5.416462425689729,
            "lat": 52.12221994032962
        },
        "target": {
            "name": "Oldebroek",
            "lon": 5.937634384224051,
            "lat": 52.45673453721854
        },
        "activity": "Accommodation and food service activities",
        "period": "2021-Q2",
        "type": "primary waste activity"
    },
    {
        "amount": 3000,
        "source": {
            "name": "Lopik",
            "lon": 4.945542461854009,
            "lat": 51.98535333222892
        },
        "target": {
            "name": "Amsterdam",
            "lon": 4.889974960713057,
            "lat": 52.37265349694298
        },
        "activity": "Accommodation and food service activities",
        "period": "2021-Q2",
        "type": "primary waste activity"
    },
    {
        "amount": 680,
        "source": {
            "name": "Lopik",
            "lon": 4.945542461854009,
            "lat": 51.98535333222892
        },
        "target": {
            "name": "Oudewater",
            "lon": 4.864242048403326,
            "lat": 52.027457963848256
        },
        "activity": "Accommodation and food service activities",
        "period": "2021-Q2",
        "type": "primary waste activity"
    },
    {
        "amount": 1000,
        "source": {
            "name": "Montfoort",
            "lon": 4.944044638221137,
            "lat": 52.04771077081319
        },
        "target": {
            "name": "Houten",
            "lon": 5.1816978796531545,
            "lat": 52.00410185651591
        },
        "activity": "Accommodation and food service activities",
        "period": "2021-Q2",
        "type": "primary waste activity"
    },
    {
        "amount": 200,
        "source": {
            "name": "Montfoort",
            "lon": 4.944044638221137,
            "lat": 52.04771077081319
        },
        "target": {
            "name": "Montfoort",
            "lon": 4.944044638221137,
            "lat": 52.04771077081319
        },
        "activity": "Accommodation and food service activities",
        "period": "2021-Q2",
        "type": "primary waste activity"
    },
    {
        "amount": 18000,
        "source": {
            "name": "Nieuwegein",
            "lon": 5.094670533990026,
            "lat": 52.030822022092124
        },
        "target": {
            "name": "Houten",
            "lon": 5.1816978796531545,
            "lat": 52.00410185651591
        },
        "activity": "Accommodation and food service activities",
        "period": "2021-Q2",
        "type": "primary waste activity"
    },
    {
        "amount": 10980,
        "source": {
            "name": "Nieuwegein",
            "lon": 5.094670533990026,
            "lat": 52.030822022092124
        },
        "target": {
            "name": "Nieuwegein",
            "lon": 5.094670533990026,
            "lat": 52.030822022092124
        },
        "activity": "Accommodation and food service activities",
        "period": "2021-Q2",
        "type": "primary waste activity"
    },
    {
        "amount": 3480,
        "source": {
            "name": "Nieuwegein",
            "lon": 5.094670533990026,
            "lat": 52.030822022092124
        },
        "target": {
            "name": "Zeist",
            "lon": 5.255181841845734,
            "lat": 52.101975704130375
        },
        "activity": "Accommodation and food service activities",
        "period": "2021-Q2",
        "type": "primary waste activity"
    },
    {
        "amount": 187440,
        "source": {
            "name": "Rhenen",
            "lon": 5.5605162443959175,
            "lat": 51.98076721631182
        },
        "target": {
            "name": "Ede",
            "lon": 5.728037348328103,
            "lat": 52.07642304593253
        },
        "activity": "Accommodation and food service activities",
        "period": "2021-Q2",
        "type": "primary waste activity"
    },
    {
        "amount": 3000,
        "source": {
            "name": "Rhenen",
            "lon": 5.5605162443959175,
            "lat": 51.98076721631182
        },
        "target": {
            "name": "Houten",
            "lon": 5.1816978796531545,
            "lat": 52.00410185651591
        },
        "activity": "Accommodation and food service activities",
        "period": "2021-Q2",
        "type": "primary waste activity"
    },
    {
        "amount": 29490,
        "source": {
            "name": "Rhenen",
            "lon": 5.5605162443959175,
            "lat": 51.98076721631182
        },
        "target": {
            "name": "Rhenen",
            "lon": 5.5605162443959175,
            "lat": 51.98076721631182
        },
        "activity": "Accommodation and food service activities",
        "period": "2021-Q2",
        "type": "primary waste activity"
    },
    {
        "amount": 2540,
        "source": {
            "name": "Rhenen",
            "lon": 5.5605162443959175,
            "lat": 51.98076721631182
        },
        "target": {
            "name": "Veenendaal",
            "lon": 5.5556559118736475,
            "lat": 52.02367981445097
        },
        "activity": "Accommodation and food service activities",
        "period": "2021-Q2",
        "type": "primary waste activity"
    },
    {
        "amount": 5040,
        "source": {
            "name": "Soest",
            "lon": 5.296288897360924,
            "lat": 52.15619845723908
        },
        "target": {
            "name": "Soest",
            "lon": 5.296288897360924,
            "lat": 52.15619845723908
        },
        "activity": "Accommodation and food service activities",
        "period": "2021-Q2",
        "type": "primary waste activity"
    },
    {
        "amount": 1500,
        "source": {
            "name": "Soest",
            "lon": 5.296288897360924,
            "lat": 52.15619845723908
        },
        "target": {
            "name": "Stichtse Vecht",
            "lon": 5.012587029988806,
            "lat": 52.1769697628483
        },
        "activity": "Accommodation and food service activities",
        "period": "2021-Q2",
        "type": "primary waste activity"
    },
    {
        "amount": 7500,
        "source": {
            "name": "Stichtse Vecht",
            "lon": 5.012587029988806,
            "lat": 52.1769697628483
        },
        "target": {
            "name": "Houten",
            "lon": 5.1816978796531545,
            "lat": 52.00410185651591
        },
        "activity": "Accommodation and food service activities",
        "period": "2021-Q2",
        "type": "primary waste activity"
    },
    {
        "amount": 7860,
        "source": {
            "name": "Stichtse Vecht",
            "lon": 5.012587029988806,
            "lat": 52.1769697628483
        },
        "target": {
            "name": "Stichtse Vecht",
            "lon": 5.012587029988806,
            "lat": 52.1769697628483
        },
        "activity": "Accommodation and food service activities",
        "period": "2021-Q2",
        "type": "primary waste activity"
    },
    {
        "amount": 15780,
        "source": {
            "name": "Utrecht",
            "lon": 5.074745542978898,
            "lat": 52.09113829631701
        },
        "target": {
            "name": "Amersfoort",
            "lon": 5.38469845838697,
            "lat": 52.173656201960775
        },
        "activity": "Accommodation and food service activities",
        "period": "2021-Q2",
        "type": "primary waste activity"
    },
    {
        "amount": 26100,
        "source": {
            "name": "Utrecht",
            "lon": 5.074745542978898,
            "lat": 52.09113829631701
        },
        "target": {
            "name": "Amsterdam",
            "lon": 4.889974960713057,
            "lat": 52.37265349694298
        },
        "activity": "Accommodation and food service activities",
        "period": "2021-Q2",
        "type": "primary waste activity"
    },
    {
        "amount": 1840,
        "source": {
            "name": "Utrecht",
            "lon": 5.074745542978898,
            "lat": 52.09113829631701
        },
        "target": {
            "name": "Dordrecht",
            "lon": 4.709578864026262,
            "lat": 51.78204680298166
        },
        "activity": "Accommodation and food service activities",
        "period": "2021-Q2",
        "type": "primary waste activity"
    },
    {
        "amount": 38550,
        "source": {
            "name": "Utrecht",
            "lon": 5.074745542978898,
            "lat": 52.09113829631701
        },
        "target": {
            "name": "Houten",
            "lon": 5.1816978796531545,
            "lat": 52.00410185651591
        },
        "activity": "Accommodation and food service activities",
        "period": "2021-Q2",
        "type": "primary waste activity"
    },
    {
        "amount": 118,
        "source": {
            "name": "Utrecht",
            "lon": 5.074745542978898,
            "lat": 52.09113829631701
        },
        "target": {
            "name": "Nieuwegein",
            "lon": 5.094670533990026,
            "lat": 52.030822022092124
        },
        "activity": "Accommodation and food service activities",
        "period": "2021-Q2",
        "type": "primary waste activity"
    },
    {
        "amount": 48460,
        "source": {
            "name": "Utrecht",
            "lon": 5.074745542978898,
            "lat": 52.09113829631701
        },
        "target": {
            "name": "Stichtse Vecht",
            "lon": 5.012587029988806,
            "lat": 52.1769697628483
        },
        "activity": "Accommodation and food service activities",
        "period": "2021-Q2",
        "type": "primary waste activity"
    },
    {
        "amount": 1980,
        "source": {
            "name": "Utrecht",
            "lon": 5.074745542978898,
            "lat": 52.09113829631701
        },
        "target": {
            "name": "Utrecht",
            "lon": 5.074745542978898,
            "lat": 52.09113829631701
        },
        "activity": "Accommodation and food service activities",
        "period": "2021-Q2",
        "type": "primary waste activity"
    },
    {
        "amount": 200,
        "source": {
            "name": "Utrechtse Heuvelrug",
            "lon": 5.388289325925499,
            "lat": 52.034706085918806
        },
        "target": {
            "name": "Amsterdam",
            "lon": 4.889974960713057,
            "lat": 52.37265349694298
        },
        "activity": "Accommodation and food service activities",
        "period": "2021-Q2",
        "type": "primary waste activity"
    },
    {
        "amount": 20620,
        "source": {
            "name": "Utrechtse Heuvelrug",
            "lon": 5.388289325925499,
            "lat": 52.034706085918806
        },
        "target": {
            "name": "Ede",
            "lon": 5.728037348328103,
            "lat": 52.07642304593253
        },
        "activity": "Accommodation and food service activities",
        "period": "2021-Q2",
        "type": "primary waste activity"
    },
    {
        "amount": 18,
        "source": {
            "name": "Utrechtse Heuvelrug",
            "lon": 5.388289325925499,
            "lat": 52.034706085918806
        },
        "target": {
            "name": "Gorinchem",
            "lon": 4.9770785074563335,
            "lat": 51.83845942939786
        },
        "activity": "Accommodation and food service activities",
        "period": "2021-Q2",
        "type": "primary waste activity"
    },
    {
        "amount": 2980,
        "source": {
            "name": "Utrechtse Heuvelrug",
            "lon": 5.388289325925499,
            "lat": 52.034706085918806
        },
        "target": {
            "name": "Utrecht",
            "lon": 5.074745542978898,
            "lat": 52.09113829631701
        },
        "activity": "Accommodation and food service activities",
        "period": "2021-Q2",
        "type": "primary waste activity"
    },
    {
        "amount": 110690,
        "source": {
            "name": "Utrechtse Heuvelrug",
            "lon": 5.388289325925499,
            "lat": 52.034706085918806
        },
        "target": {
            "name": "Utrechtse Heuvelrug",
            "lon": 5.388289325925499,
            "lat": 52.034706085918806
        },
        "activity": "Accommodation and food service activities",
        "period": "2021-Q2",
        "type": "primary waste activity"
    },
    {
        "amount": 85340,
        "source": {
            "name": "Utrechtse Heuvelrug",
            "lon": 5.388289325925499,
            "lat": 52.034706085918806
        },
        "target": {
            "name": "Veenendaal",
            "lon": 5.5556559118736475,
            "lat": 52.02367981445097
        },
        "activity": "Accommodation and food service activities",
        "period": "2021-Q2",
        "type": "primary waste activity"
    },
    {
        "amount": 4400,
        "source": {
            "name": "Veenendaal",
            "lon": 5.5556559118736475,
            "lat": 52.02367981445097
        },
        "target": {
            "name": "Ede",
            "lon": 5.728037348328103,
            "lat": 52.07642304593253
        },
        "activity": "Accommodation and food service activities",
        "period": "2021-Q2",
        "type": "primary waste activity"
    },
    {
        "amount": 15000,
        "source": {
            "name": "Veenendaal",
            "lon": 5.5556559118736475,
            "lat": 52.02367981445097
        },
        "target": {
            "name": "Houten",
            "lon": 5.1816978796531545,
            "lat": 52.00410185651591
        },
        "activity": "Accommodation and food service activities",
        "period": "2021-Q2",
        "type": "primary waste activity"
    },
    {
        "amount": 32360,
        "source": {
            "name": "Veenendaal",
            "lon": 5.5556559118736475,
            "lat": 52.02367981445097
        },
        "target": {
            "name": "Veenendaal",
            "lon": 5.5556559118736475,
            "lat": 52.02367981445097
        },
        "activity": "Accommodation and food service activities",
        "period": "2021-Q2",
        "type": "primary waste activity"
    },
    {
        "amount": 1060,
        "source": {
            "name": "Woerden",
            "lon": 4.8988871248707655,
            "lat": 52.10694088575098
        },
        "target": {
            "name": "De Ronde Venen",
            "lon": 4.917327835064022,
            "lat": 52.226343817520174
        },
        "activity": "Accommodation and food service activities",
        "period": "2021-Q2",
        "type": "primary waste activity"
    },
    {
        "amount": 4500,
        "source": {
            "name": "Woerden",
            "lon": 4.8988871248707655,
            "lat": 52.10694088575098
        },
        "target": {
            "name": "Houten",
            "lon": 5.1816978796531545,
            "lat": 52.00410185651591
        },
        "activity": "Accommodation and food service activities",
        "period": "2021-Q2",
        "type": "primary waste activity"
    },
    {
        "amount": 1500,
        "source": {
            "name": "Woudenberg",
            "lon": 5.4266299689863375,
            "lat": 52.081152392000725
        },
        "target": {
            "name": "Houten",
            "lon": 5.1816978796531545,
            "lat": 52.00410185651591
        },
        "activity": "Accommodation and food service activities",
        "period": "2021-Q2",
        "type": "primary waste activity"
    },
    {
        "amount": 80,
        "source": {
            "name": "Woudenberg",
            "lon": 5.4266299689863375,
            "lat": 52.081152392000725
        },
        "target": {
            "name": "Veenendaal",
            "lon": 5.5556559118736475,
            "lat": 52.02367981445097
        },
        "activity": "Accommodation and food service activities",
        "period": "2021-Q2",
        "type": "primary waste activity"
    },
    {
        "amount": 17500,
        "source": {
            "name": "Zederik",
            "lon": 5.013353739049915,
            "lat": 51.932366219717984
        },
        "target": {
            "name": "Houten",
            "lon": 5.1816978796531545,
            "lat": 52.00410185651591
        },
        "activity": "Accommodation and food service activities",
        "period": "2021-Q2",
        "type": "primary waste activity"
    },
    {
        "amount": 8340,
        "source": {
            "name": "Zeist",
            "lon": 5.255181841845734,
            "lat": 52.101975704130375
        },
        "target": {
            "name": "Amersfoort",
            "lon": 5.38469845838697,
            "lat": 52.173656201960775
        },
        "activity": "Accommodation and food service activities",
        "period": "2021-Q2",
        "type": "primary waste activity"
    },
    {
        "amount": 5720,
        "source": {
            "name": "Zeist",
            "lon": 5.255181841845734,
            "lat": 52.101975704130375
        },
        "target": {
            "name": "Bodegraven-Reeuwijk",
            "lon": 4.766097063410926,
            "lat": 52.06541936805599
        },
        "activity": "Accommodation and food service activities",
        "period": "2021-Q2",
        "type": "primary waste activity"
    },
    {
        "amount": 3560,
        "source": {
            "name": "Zeist",
            "lon": 5.255181841845734,
            "lat": 52.101975704130375
        },
        "target": {
            "name": "Buren",
            "lon": 5.4036557915550345,
            "lat": 51.938320813013355
        },
        "activity": "Accommodation and food service activities",
        "period": "2021-Q2",
        "type": "primary waste activity"
    },
    {
        "amount": 5000,
        "source": {
            "name": "Zeist",
            "lon": 5.255181841845734,
            "lat": 52.101975704130375
        },
        "target": {
            "name": "Houten",
            "lon": 5.1816978796531545,
            "lat": 52.00410185651591
        },
        "activity": "Accommodation and food service activities",
        "period": "2021-Q2",
        "type": "primary waste activity"
    },
    {
        "amount": 339020,
        "source": {
            "name": "Zeist",
            "lon": 5.255181841845734,
            "lat": 52.101975704130375
        },
        "target": {
            "name": "Soest",
            "lon": 5.296288897360924,
            "lat": 52.15619845723908
        },
        "activity": "Accommodation and food service activities",
        "period": "2021-Q2",
        "type": "primary waste activity"
    },
    {
        "amount": 1047180,
        "source": {
            "name": "Zeist",
            "lon": 5.255181841845734,
            "lat": 52.101975704130375
        },
        "target": {
            "name": "Utrecht",
            "lon": 5.074745542978898,
            "lat": 52.09113829631701
        },
        "activity": "Accommodation and food service activities",
        "period": "2021-Q2",
        "type": "primary waste activity"
    },
    {
        "amount": 3340,
        "source": {
            "name": "Zeist",
            "lon": 5.255181841845734,
            "lat": 52.101975704130375
        },
        "target": {
            "name": "Utrechtse Heuvelrug",
            "lon": 5.388289325925499,
            "lat": 52.034706085918806
        },
        "activity": "Accommodation and food service activities",
        "period": "2021-Q2",
        "type": "primary waste activity"
    },
    {
        "amount": 3200,
        "source": {
            "name": "Zeist",
            "lon": 5.255181841845734,
            "lat": 52.101975704130375
        },
        "target": {
            "name": "Zeist",
            "lon": 5.255181841845734,
            "lat": 52.101975704130375
        },
        "activity": "Accommodation and food service activities",
        "period": "2021-Q2",
        "type": "primary waste activity"
    },
    {
        "amount": 532990,
        "source": {
            "name": "Amersfoort",
            "lon": 5.38469845838697,
            "lat": 52.173656201960775
        },
        "target": {
            "name": "Amersfoort",
            "lon": 5.38469845838697,
            "lat": 52.173656201960775
        },
        "activity": "Administrative and support service activities",
        "period": "2021-Q2",
        "type": "primary waste activity"
    },
    {
        "amount": 540,
        "source": {
            "name": "Amersfoort",
            "lon": 5.38469845838697,
            "lat": 52.173656201960775
        },
        "target": {
            "name": "Apeldoorn",
            "lon": 5.921845013671349,
            "lat": 52.18988523717342
        },
        "activity": "Administrative and support service activities",
        "period": "2021-Q2",
        "type": "primary waste activity"
    },
    {
        "amount": 28020,
        "source": {
            "name": "Amersfoort",
            "lon": 5.38469845838697,
            "lat": 52.173656201960775
        },
        "target": {
            "name": "Bunschoten",
            "lon": 5.357970197985367,
            "lat": 52.23868219963142
        },
        "activity": "Administrative and support service activities",
        "period": "2021-Q2",
        "type": "primary waste activity"
    },
    {
        "amount": 1641,
        "source": {
            "name": "Amersfoort",
            "lon": 5.38469845838697,
            "lat": 52.173656201960775
        },
        "target": {
            "name": "Geertruidenberg",
            "lon": 4.881580997932283,
            "lat": 51.697143708388786
        },
        "activity": "Administrative and support service activities",
        "period": "2021-Q2",
        "type": "primary waste activity"
    },
    {
        "amount": 2000,
        "source": {
            "name": "Amersfoort",
            "lon": 5.38469845838697,
            "lat": 52.173656201960775
        },
        "target": {
            "name": "Houten",
            "lon": 5.1816978796531545,
            "lat": 52.00410185651591
        },
        "activity": "Administrative and support service activities",
        "period": "2021-Q2",
        "type": "primary waste activity"
    },
    {
        "amount": 8830,
        "source": {
            "name": "Amersfoort",
            "lon": 5.38469845838697,
            "lat": 52.173656201960775
        },
        "target": {
            "name": "Nijkerk",
            "lon": 5.4856904287038315,
            "lat": 52.21083816790596
        },
        "activity": "Administrative and support service activities",
        "period": "2021-Q2",
        "type": "primary waste activity"
    },
    {
        "amount": 2600,
        "source": {
            "name": "Amersfoort",
            "lon": 5.38469845838697,
            "lat": 52.173656201960775
        },
        "target": {
            "name": "Scherpenzeel",
            "lon": 5.500493412565268,
            "lat": 52.08932413449843
        },
        "activity": "Administrative and support service activities",
        "period": "2021-Q2",
        "type": "primary waste activity"
    },
    {
        "amount": 776,
        "source": {
            "name": "Amersfoort",
            "lon": 5.38469845838697,
            "lat": 52.173656201960775
        },
        "target": {
            "name": "Smallingerland",
            "lon": 6.038961215895858,
            "lat": 53.113411819582105
        },
        "activity": "Administrative and support service activities",
        "period": "2021-Q2",
        "type": "primary waste activity"
    },
    {
        "amount": 118780,
        "source": {
            "name": "Amersfoort",
            "lon": 5.38469845838697,
            "lat": 52.173656201960775
        },
        "target": {
            "name": "Soest",
            "lon": 5.296288897360924,
            "lat": 52.15619845723908
        },
        "activity": "Administrative and support service activities",
        "period": "2021-Q2",
        "type": "primary waste activity"
    },
    {
        "amount": 580,
        "source": {
            "name": "Amersfoort",
            "lon": 5.38469845838697,
            "lat": 52.173656201960775
        },
        "target": {
            "name": "Veenendaal",
            "lon": 5.5556559118736475,
            "lat": 52.02367981445097
        },
        "activity": "Administrative and support service activities",
        "period": "2021-Q2",
        "type": "primary waste activity"
    },
    {
        "amount": 160,
        "source": {
            "name": "Amersfoort",
            "lon": 5.38469845838697,
            "lat": 52.173656201960775
        },
        "target": {
            "name": "Woerden",
            "lon": 4.8988871248707655,
            "lat": 52.10694088575098
        },
        "activity": "Administrative and support service activities",
        "period": "2021-Q2",
        "type": "primary waste activity"
    },
    {
        "amount": 71880,
        "source": {
            "name": "Baarn",
            "lon": 5.264152829916488,
            "lat": 52.203834168210875
        },
        "target": {
            "name": "Beverwijk",
            "lon": 4.654000308885051,
            "lat": 52.48406703093382
        },
        "activity": "Administrative and support service activities",
        "period": "2021-Q2",
        "type": "primary waste activity"
    },
    {
        "amount": 33590,
        "source": {
            "name": "Baarn",
            "lon": 5.264152829916488,
            "lat": 52.203834168210875
        },
        "target": {
            "name": "Eemnes",
            "lon": 5.279669185493609,
            "lat": 52.249879374680546
        },
        "activity": "Administrative and support service activities",
        "period": "2021-Q2",
        "type": "primary waste activity"
    },
    {
        "amount": 262,
        "source": {
            "name": "Baarn",
            "lon": 5.264152829916488,
            "lat": 52.203834168210875
        },
        "target": {
            "name": "Nieuwegein",
            "lon": 5.094670533990026,
            "lat": 52.030822022092124
        },
        "activity": "Administrative and support service activities",
        "period": "2021-Q2",
        "type": "primary waste activity"
    },
    {
        "amount": 133780,
        "source": {
            "name": "Baarn",
            "lon": 5.264152829916488,
            "lat": 52.203834168210875
        },
        "target": {
            "name": "Soest",
            "lon": 5.296288897360924,
            "lat": 52.15619845723908
        },
        "activity": "Administrative and support service activities",
        "period": "2021-Q2",
        "type": "primary waste activity"
    },
    {
        "amount": 99300,
        "source": {
            "name": "Bunnik",
            "lon": 5.216923375058714,
            "lat": 52.04092103321746
        },
        "target": {
            "name": "Houten",
            "lon": 5.1816978796531545,
            "lat": 52.00410185651591
        },
        "activity": "Administrative and support service activities",
        "period": "2021-Q2",
        "type": "primary waste activity"
    },
    {
        "amount": 17800,
        "source": {
            "name": "Bunnik",
            "lon": 5.216923375058714,
            "lat": 52.04092103321746
        },
        "target": {
            "name": "Nieuwegein",
            "lon": 5.094670533990026,
            "lat": 52.030822022092124
        },
        "activity": "Administrative and support service activities",
        "period": "2021-Q2",
        "type": "primary waste activity"
    },
    {
        "amount": 25960,
        "source": {
            "name": "Bunnik",
            "lon": 5.216923375058714,
            "lat": 52.04092103321746
        },
        "target": {
            "name": "Soest",
            "lon": 5.296288897360924,
            "lat": 52.15619845723908
        },
        "activity": "Administrative and support service activities",
        "period": "2021-Q2",
        "type": "primary waste activity"
    },
    {
        "amount": 61840,
        "source": {
            "name": "Bunnik",
            "lon": 5.216923375058714,
            "lat": 52.04092103321746
        },
        "target": {
            "name": "Utrecht",
            "lon": 5.074745542978898,
            "lat": 52.09113829631701
        },
        "activity": "Administrative and support service activities",
        "period": "2021-Q2",
        "type": "primary waste activity"
    },
    {
        "amount": 161160,
        "source": {
            "name": "Bunnik",
            "lon": 5.216923375058714,
            "lat": 52.04092103321746
        },
        "target": {
            "name": "Wijk bij Duurstede",
            "lon": 5.325256174880094,
            "lat": 51.98920088155075
        },
        "activity": "Administrative and support service activities",
        "period": "2021-Q2",
        "type": "primary waste activity"
    },
    {
        "amount": 1220,
        "source": {
            "name": "Bunnik",
            "lon": 5.216923375058714,
            "lat": 52.04092103321746
        },
        "target": {
            "name": "Woerden",
            "lon": 4.8988871248707655,
            "lat": 52.10694088575098
        },
        "activity": "Administrative and support service activities",
        "period": "2021-Q2",
        "type": "primary waste activity"
    },
    {
        "amount": 38910,
        "source": {
            "name": "Bunschoten",
            "lon": 5.357970197985367,
            "lat": 52.23868219963142
        },
        "target": {
            "name": "Bunschoten",
            "lon": 5.357970197985367,
            "lat": 52.23868219963142
        },
        "activity": "Administrative and support service activities",
        "period": "2021-Q2",
        "type": "primary waste activity"
    },
    {
        "amount": 900,
        "source": {
            "name": "Bunschoten",
            "lon": 5.357970197985367,
            "lat": 52.23868219963142
        },
        "target": {
            "name": "Soest",
            "lon": 5.296288897360924,
            "lat": 52.15619845723908
        },
        "activity": "Administrative and support service activities",
        "period": "2021-Q2",
        "type": "primary waste activity"
    },
    {
        "amount": 10240,
        "source": {
            "name": "De Bilt",
            "lon": 5.174306046007605,
            "lat": 52.14174148295569
        },
        "target": {
            "name": "Amersfoort",
            "lon": 5.38469845838697,
            "lat": 52.173656201960775
        },
        "activity": "Administrative and support service activities",
        "period": "2021-Q2",
        "type": "primary waste activity"
    },
    {
        "amount": 1000,
        "source": {
            "name": "De Bilt",
            "lon": 5.174306046007605,
            "lat": 52.14174148295569
        },
        "target": {
            "name": "Amsterdam",
            "lon": 4.889974960713057,
            "lat": 52.37265349694298
        },
        "activity": "Administrative and support service activities",
        "period": "2021-Q2",
        "type": "primary waste activity"
    },
    {
        "amount": 680,
        "source": {
            "name": "De Bilt",
            "lon": 5.174306046007605,
            "lat": 52.14174148295569
        },
        "target": {
            "name": "Leerdam",
            "lon": 5.085933891047325,
            "lat": 51.90284850758226
        },
        "activity": "Administrative and support service activities",
        "period": "2021-Q2",
        "type": "primary waste activity"
    },
    {
        "amount": 7200,
        "source": {
            "name": "De Bilt",
            "lon": 5.174306046007605,
            "lat": 52.14174148295569
        },
        "target": {
            "name": "Nieuwegein",
            "lon": 5.094670533990026,
            "lat": 52.030822022092124
        },
        "activity": "Administrative and support service activities",
        "period": "2021-Q2",
        "type": "primary waste activity"
    },
    {
        "amount": 380,
        "source": {
            "name": "De Bilt",
            "lon": 5.174306046007605,
            "lat": 52.14174148295569
        },
        "target": {
            "name": "Renkum",
            "lon": 5.784843341614298,
            "lat": 51.989618304839134
        },
        "activity": "Administrative and support service activities",
        "period": "2021-Q2",
        "type": "primary waste activity"
    },
    {
        "amount": 30,
        "source": {
            "name": "De Bilt",
            "lon": 5.174306046007605,
            "lat": 52.14174148295569
        },
        "target": {
            "name": "Rhenen",
            "lon": 5.5605162443959175,
            "lat": 51.98076721631182
        },
        "activity": "Administrative and support service activities",
        "period": "2021-Q2",
        "type": "primary waste activity"
    },
    {
        "amount": 180060,
        "source": {
            "name": "De Bilt",
            "lon": 5.174306046007605,
            "lat": 52.14174148295569
        },
        "target": {
            "name": "Soest",
            "lon": 5.296288897360924,
            "lat": 52.15619845723908
        },
        "activity": "Administrative and support service activities",
        "period": "2021-Q2",
        "type": "primary waste activity"
    },
    {
        "amount": 10880,
        "source": {
            "name": "De Bilt",
            "lon": 5.174306046007605,
            "lat": 52.14174148295569
        },
        "target": {
            "name": "Stichtse Vecht",
            "lon": 5.012587029988806,
            "lat": 52.1769697628483
        },
        "activity": "Administrative and support service activities",
        "period": "2021-Q2",
        "type": "primary waste activity"
    },
    {
        "amount": 89301,
        "source": {
            "name": "De Bilt",
            "lon": 5.174306046007605,
            "lat": 52.14174148295569
        },
        "target": {
            "name": "Utrecht",
            "lon": 5.074745542978898,
            "lat": 52.09113829631701
        },
        "activity": "Administrative and support service activities",
        "period": "2021-Q2",
        "type": "primary waste activity"
    },
    {
        "amount": 9600,
        "source": {
            "name": "De Ronde Venen",
            "lon": 4.917327835064022,
            "lat": 52.226343817520174
        },
        "target": {
            "name": "Bodegraven-Reeuwijk",
            "lon": 4.766097063410926,
            "lat": 52.06541936805599
        },
        "activity": "Administrative and support service activities",
        "period": "2021-Q2",
        "type": "primary waste activity"
    },
    {
        "amount": 221680,
        "source": {
            "name": "De Ronde Venen",
            "lon": 4.917327835064022,
            "lat": 52.226343817520174
        },
        "target": {
            "name": "De Ronde Venen",
            "lon": 4.917327835064022,
            "lat": 52.226343817520174
        },
        "activity": "Administrative and support service activities",
        "period": "2021-Q2",
        "type": "primary waste activity"
    },
    {
        "amount": 1010,
        "source": {
            "name": "De Ronde Venen",
            "lon": 4.917327835064022,
            "lat": 52.226343817520174
        },
        "target": {
            "name": "Diemen",
            "lon": 4.986965729456585,
            "lat": 52.33647503391449
        },
        "activity": "Administrative and support service activities",
        "period": "2021-Q2",
        "type": "primary waste activity"
    },
    {
        "amount": 2976,
        "source": {
            "name": "De Ronde Venen",
            "lon": 4.917327835064022,
            "lat": 52.226343817520174
        },
        "target": {
            "name": "Duiven",
            "lon": 6.018177116025047,
            "lat": 51.94655324501759
        },
        "activity": "Administrative and support service activities",
        "period": "2021-Q2",
        "type": "primary waste activity"
    },
    {
        "amount": 41420,
        "source": {
            "name": "De Ronde Venen",
            "lon": 4.917327835064022,
            "lat": 52.226343817520174
        },
        "target": {
            "name": "Geldrop-Mierlo",
            "lon": 5.587571811364438,
            "lat": 51.431273599222294
        },
        "activity": "Administrative and support service activities",
        "period": "2021-Q2",
        "type": "primary waste activity"
    },
    {
        "amount": 4460,
        "source": {
            "name": "De Ronde Venen",
            "lon": 4.917327835064022,
            "lat": 52.226343817520174
        },
        "target": {
            "name": "Gooise Meren",
            "lon": 5.134572308942595,
            "lat": 52.301412228066866
        },
        "activity": "Administrative and support service activities",
        "period": "2021-Q2",
        "type": "primary waste activity"
    },
    {
        "amount": 1220,
        "source": {
            "name": "De Ronde Venen",
            "lon": 4.917327835064022,
            "lat": 52.226343817520174
        },
        "target": {
            "name": "Haarlemmermeer",
            "lon": 4.68355144230065,
            "lat": 52.29724184019614
        },
        "activity": "Administrative and support service activities",
        "period": "2021-Q2",
        "type": "primary waste activity"
    },
    {
        "amount": 16900,
        "source": {
            "name": "De Ronde Venen",
            "lon": 4.917327835064022,
            "lat": 52.226343817520174
        },
        "target": {
            "name": "Nieuwkoop",
            "lon": 4.779458143711321,
            "lat": 52.170790811954454
        },
        "activity": "Administrative and support service activities",
        "period": "2021-Q2",
        "type": "primary waste activity"
    },
    {
        "amount": 26520,
        "source": {
            "name": "De Ronde Venen",
            "lon": 4.917327835064022,
            "lat": 52.226343817520174
        },
        "target": {
            "name": "Stichtse Vecht",
            "lon": 5.012587029988806,
            "lat": 52.1769697628483
        },
        "activity": "Administrative and support service activities",
        "period": "2021-Q2",
        "type": "primary waste activity"
    },
    {
        "amount": 10080,
        "source": {
            "name": "De Ronde Venen",
            "lon": 4.917327835064022,
            "lat": 52.226343817520174
        },
        "target": {
            "name": "Utrecht",
            "lon": 5.074745542978898,
            "lat": 52.09113829631701
        },
        "activity": "Administrative and support service activities",
        "period": "2021-Q2",
        "type": "primary waste activity"
    },
    {
        "amount": 2840,
        "source": {
            "name": "De Ronde Venen",
            "lon": 4.917327835064022,
            "lat": 52.226343817520174
        },
        "target": {
            "name": "Woerden",
            "lon": 4.8988871248707655,
            "lat": 52.10694088575098
        },
        "activity": "Administrative and support service activities",
        "period": "2021-Q2",
        "type": "primary waste activity"
    },
    {
        "amount": 125640,
        "source": {
            "name": "Eemnes",
            "lon": 5.279669185493609,
            "lat": 52.249879374680546
        },
        "target": {
            "name": "Almere",
            "lon": 5.246665871637561,
            "lat": 52.36720720570683
        },
        "activity": "Administrative and support service activities",
        "period": "2021-Q2",
        "type": "primary waste activity"
    },
    {
        "amount": 123580,
        "source": {
            "name": "Eemnes",
            "lon": 5.279669185493609,
            "lat": 52.249879374680546
        },
        "target": {
            "name": "Eemnes",
            "lon": 5.279669185493609,
            "lat": 52.249879374680546
        },
        "activity": "Administrative and support service activities",
        "period": "2021-Q2",
        "type": "primary waste activity"
    },
    {
        "amount": 35300,
        "source": {
            "name": "Eemnes",
            "lon": 5.279669185493609,
            "lat": 52.249879374680546
        },
        "target": {
            "name": "Huizen",
            "lon": 5.231842292213701,
            "lat": 52.29219764077458
        },
        "activity": "Administrative and support service activities",
        "period": "2021-Q2",
        "type": "primary waste activity"
    },
    {
        "amount": 118420,
        "source": {
            "name": "Eemnes",
            "lon": 5.279669185493609,
            "lat": 52.249879374680546
        },
        "target": {
            "name": "Soest",
            "lon": 5.296288897360924,
            "lat": 52.15619845723908
        },
        "activity": "Administrative and support service activities",
        "period": "2021-Q2",
        "type": "primary waste activity"
    },
    {
        "amount": 7260,
        "source": {
            "name": "Eemnes",
            "lon": 5.279669185493609,
            "lat": 52.249879374680546
        },
        "target": {
            "name": "Zeist",
            "lon": 5.255181841845734,
            "lat": 52.101975704130375
        },
        "activity": "Administrative and support service activities",
        "period": "2021-Q2",
        "type": "primary waste activity"
    },
    {
        "amount": 5880,
        "source": {
            "name": "Houten",
            "lon": 5.1816978796531545,
            "lat": 52.00410185651591
        },
        "target": {
            "name": "Aa en Hunze",
            "lon": 6.727330080926363,
            "lat": 52.993024201926424
        },
        "activity": "Administrative and support service activities",
        "period": "2021-Q2",
        "type": "primary waste activity"
    },
    {
        "amount": 1183,
        "source": {
            "name": "Houten",
            "lon": 5.1816978796531545,
            "lat": 52.00410185651591
        },
        "target": {
            "name": "Alphen aan den Rijn",
            "lon": 4.640979414314331,
            "lat": 52.11332282197173
        },
        "activity": "Administrative and support service activities",
        "period": "2021-Q2",
        "type": "primary waste activity"
    },
    {
        "amount": 92380,
        "source": {
            "name": "Houten",
            "lon": 5.1816978796531545,
            "lat": 52.00410185651591
        },
        "target": {
            "name": "Bunnik",
            "lon": 5.216923375058714,
            "lat": 52.04092103321746
        },
        "activity": "Administrative and support service activities",
        "period": "2021-Q2",
        "type": "primary waste activity"
    },
    {
        "amount": 3920,
        "source": {
            "name": "Houten",
            "lon": 5.1816978796531545,
            "lat": 52.00410185651591
        },
        "target": {
            "name": "Geldermalsen",
            "lon": 5.220939470909649,
            "lat": 51.887843523238224
        },
        "activity": "Administrative and support service activities",
        "period": "2021-Q2",
        "type": "primary waste activity"
    },
    {
        "amount": 541300,
        "source": {
            "name": "Houten",
            "lon": 5.1816978796531545,
            "lat": 52.00410185651591
        },
        "target": {
            "name": "Houten",
            "lon": 5.1816978796531545,
            "lat": 52.00410185651591
        },
        "activity": "Administrative and support service activities",
        "period": "2021-Q2",
        "type": "primary waste activity"
    },
    {
        "amount": 43220,
        "source": {
            "name": "Houten",
            "lon": 5.1816978796531545,
            "lat": 52.00410185651591
        },
        "target": {
            "name": "Nieuwegein",
            "lon": 5.094670533990026,
            "lat": 52.030822022092124
        },
        "activity": "Administrative and support service activities",
        "period": "2021-Q2",
        "type": "primary waste activity"
    },
    {
        "amount": 43920,
        "source": {
            "name": "Houten",
            "lon": 5.1816978796531545,
            "lat": 52.00410185651591
        },
        "target": {
            "name": "Soest",
            "lon": 5.296288897360924,
            "lat": 52.15619845723908
        },
        "activity": "Administrative and support service activities",
        "period": "2021-Q2",
        "type": "primary waste activity"
    },
    {
        "amount": 28200,
        "source": {
            "name": "Houten",
            "lon": 5.1816978796531545,
            "lat": 52.00410185651591
        },
        "target": {
            "name": "Utrecht",
            "lon": 5.074745542978898,
            "lat": 52.09113829631701
        },
        "activity": "Administrative and support service activities",
        "period": "2021-Q2",
        "type": "primary waste activity"
    },
    {
        "amount": 19820,
        "source": {
            "name": "Houten",
            "lon": 5.1816978796531545,
            "lat": 52.00410185651591
        },
        "target": {
            "name": "Vlaardingen",
            "lon": 4.327862977642557,
            "lat": 51.917389292242355
        },
        "activity": "Administrative and support service activities",
        "period": "2021-Q2",
        "type": "primary waste activity"
    },
    {
        "amount": 15000,
        "source": {
            "name": "Houten",
            "lon": 5.1816978796531545,
            "lat": 52.00410185651591
        },
        "target": {
            "name": "Westland",
            "lon": 4.216320222248847,
            "lat": 51.99802040317023
        },
        "activity": "Administrative and support service activities",
        "period": "2021-Q2",
        "type": "primary waste activity"
    },
    {
        "amount": 501220,
        "source": {
            "name": "Houten",
            "lon": 5.1816978796531545,
            "lat": 52.00410185651591
        },
        "target": {
            "name": "Wijk bij Duurstede",
            "lon": 5.325256174880094,
            "lat": 51.98920088155075
        },
        "activity": "Administrative and support service activities",
        "period": "2021-Q2",
        "type": "primary waste activity"
    },
    {
        "amount": 5440,
        "source": {
            "name": "IJsselstein",
            "lon": 5.028778785161066,
            "lat": 52.027715469121475
        },
        "target": {
            "name": "Montfoort",
            "lon": 4.944044638221137,
            "lat": 52.04771077081319
        },
        "activity": "Administrative and support service activities",
        "period": "2021-Q2",
        "type": "primary waste activity"
    },
    {
        "amount": 20360,
        "source": {
            "name": "IJsselstein",
            "lon": 5.028778785161066,
            "lat": 52.027715469121475
        },
        "target": {
            "name": "Nieuwegein",
            "lon": 5.094670533990026,
            "lat": 52.030822022092124
        },
        "activity": "Administrative and support service activities",
        "period": "2021-Q2",
        "type": "primary waste activity"
    },
    {
        "amount": 2900,
        "source": {
            "name": "IJsselstein",
            "lon": 5.028778785161066,
            "lat": 52.027715469121475
        },
        "target": {
            "name": "Stichtse Vecht",
            "lon": 5.012587029988806,
            "lat": 52.1769697628483
        },
        "activity": "Administrative and support service activities",
        "period": "2021-Q2",
        "type": "primary waste activity"
    },
    {
        "amount": 1620,
        "source": {
            "name": "IJsselstein",
            "lon": 5.028778785161066,
            "lat": 52.027715469121475
        },
        "target": {
            "name": "Utrecht",
            "lon": 5.074745542978898,
            "lat": 52.09113829631701
        },
        "activity": "Administrative and support service activities",
        "period": "2021-Q2",
        "type": "primary waste activity"
    },
    {
        "amount": 1680,
        "source": {
            "name": "IJsselstein",
            "lon": 5.028778785161066,
            "lat": 52.027715469121475
        },
        "target": {
            "name": "Waddinxveen",
            "lon": 4.640704245962797,
            "lat": 52.042396629247555
        },
        "activity": "Administrative and support service activities",
        "period": "2021-Q2",
        "type": "primary waste activity"
    },
    {
        "amount": 540,
        "source": {
            "name": "IJsselstein",
            "lon": 5.028778785161066,
            "lat": 52.027715469121475
        },
        "target": {
            "name": "Woerden",
            "lon": 4.8988871248707655,
            "lat": 52.10694088575098
        },
        "activity": "Administrative and support service activities",
        "period": "2021-Q2",
        "type": "primary waste activity"
    },
    {
        "amount": 3240,
        "source": {
            "name": "Leusden",
            "lon": 5.416462425689729,
            "lat": 52.12221994032962
        },
        "target": {
            "name": "Amersfoort",
            "lon": 5.38469845838697,
            "lat": 52.173656201960775
        },
        "activity": "Administrative and support service activities",
        "period": "2021-Q2",
        "type": "primary waste activity"
    },
    {
        "amount": 6560,
        "source": {
            "name": "Leusden",
            "lon": 5.416462425689729,
            "lat": 52.12221994032962
        },
        "target": {
            "name": "Bunschoten",
            "lon": 5.357970197985367,
            "lat": 52.23868219963142
        },
        "activity": "Administrative and support service activities",
        "period": "2021-Q2",
        "type": "primary waste activity"
    },
    {
        "amount": 36500,
        "source": {
            "name": "Leusden",
            "lon": 5.416462425689729,
            "lat": 52.12221994032962
        },
        "target": {
            "name": "De Ronde Venen",
            "lon": 4.917327835064022,
            "lat": 52.226343817520174
        },
        "activity": "Administrative and support service activities",
        "period": "2021-Q2",
        "type": "primary waste activity"
    },
    {
        "amount": 1580,
        "source": {
            "name": "Leusden",
            "lon": 5.416462425689729,
            "lat": 52.12221994032962
        },
        "target": {
            "name": "Huizen",
            "lon": 5.231842292213701,
            "lat": 52.29219764077458
        },
        "activity": "Administrative and support service activities",
        "period": "2021-Q2",
        "type": "primary waste activity"
    },
    {
        "amount": 92,
        "source": {
            "name": "Leusden",
            "lon": 5.416462425689729,
            "lat": 52.12221994032962
        },
        "target": {
            "name": "Nieuwegein",
            "lon": 5.094670533990026,
            "lat": 52.030822022092124
        },
        "activity": "Administrative and support service activities",
        "period": "2021-Q2",
        "type": "primary waste activity"
    },
    {
        "amount": 1306,
        "source": {
            "name": "Leusden",
            "lon": 5.416462425689729,
            "lat": 52.12221994032962
        },
        "target": {
            "name": "Oost Gelre",
            "lon": 6.5757533647270066,
            "lat": 52.009833888394134
        },
        "activity": "Administrative and support service activities",
        "period": "2021-Q2",
        "type": "primary waste activity"
    },
    {
        "amount": 32670,
        "source": {
            "name": "Leusden",
            "lon": 5.416462425689729,
            "lat": 52.12221994032962
        },
        "target": {
            "name": "Soest",
            "lon": 5.296288897360924,
            "lat": 52.15619845723908
        },
        "activity": "Administrative and support service activities",
        "period": "2021-Q2",
        "type": "primary waste activity"
    },
    {
        "amount": 560,
        "source": {
            "name": "Leusden",
            "lon": 5.416462425689729,
            "lat": 52.12221994032962
        },
        "target": {
            "name": "Utrecht",
            "lon": 5.074745542978898,
            "lat": 52.09113829631701
        },
        "activity": "Administrative and support service activities",
        "period": "2021-Q2",
        "type": "primary waste activity"
    },
    {
        "amount": 24320,
        "source": {
            "name": "Leusden",
            "lon": 5.416462425689729,
            "lat": 52.12221994032962
        },
        "target": {
            "name": "Veenendaal",
            "lon": 5.5556559118736475,
            "lat": 52.02367981445097
        },
        "activity": "Administrative and support service activities",
        "period": "2021-Q2",
        "type": "primary waste activity"
    },
    {
        "amount": 4740,
        "source": {
            "name": "Lopik",
            "lon": 4.945542461854009,
            "lat": 51.98535333222892
        },
        "target": {
            "name": "Almere",
            "lon": 5.246665871637561,
            "lat": 52.36720720570683
        },
        "activity": "Administrative and support service activities",
        "period": "2021-Q2",
        "type": "primary waste activity"
    },
    {
        "amount": 75880,
        "source": {
            "name": "Lopik",
            "lon": 4.945542461854009,
            "lat": 51.98535333222892
        },
        "target": {
            "name": "Amsterdam",
            "lon": 4.889974960713057,
            "lat": 52.37265349694298
        },
        "activity": "Administrative and support service activities",
        "period": "2021-Q2",
        "type": "primary waste activity"
    },
    {
        "amount": 1250,
        "source": {
            "name": "Lopik",
            "lon": 4.945542461854009,
            "lat": 51.98535333222892
        },
        "target": {
            "name": "Buren",
            "lon": 5.4036557915550345,
            "lat": 51.938320813013355
        },
        "activity": "Administrative and support service activities",
        "period": "2021-Q2",
        "type": "primary waste activity"
    },
    {
        "amount": 14480,
        "source": {
            "name": "Lopik",
            "lon": 4.945542461854009,
            "lat": 51.98535333222892
        },
        "target": {
            "name": "Ede",
            "lon": 5.728037348328103,
            "lat": 52.07642304593253
        },
        "activity": "Administrative and support service activities",
        "period": "2021-Q2",
        "type": "primary waste activity"
    },
    {
        "amount": 13900,
        "source": {
            "name": "Lopik",
            "lon": 4.945542461854009,
            "lat": 51.98535333222892
        },
        "target": {
            "name": "Kaag en Braassem",
            "lon": 4.62921200035751,
            "lat": 52.192579837261604
        },
        "activity": "Administrative and support service activities",
        "period": "2021-Q2",
        "type": "primary waste activity"
    },
    {
        "amount": 26180,
        "source": {
            "name": "Lopik",
            "lon": 4.945542461854009,
            "lat": 51.98535333222892
        },
        "target": {
            "name": "Krimpenerwaard",
            "lon": 4.7372270175536935,
            "lat": 51.952393942367294
        },
        "activity": "Administrative and support service activities",
        "period": "2021-Q2",
        "type": "primary waste activity"
    },
    {
        "amount": 74160,
        "source": {
            "name": "Lopik",
            "lon": 4.945542461854009,
            "lat": 51.98535333222892
        },
        "target": {
            "name": "Montfoort",
            "lon": 4.944044638221137,
            "lat": 52.04771077081319
        },
        "activity": "Administrative and support service activities",
        "period": "2021-Q2",
        "type": "primary waste activity"
    },
    {
        "amount": 58448,
        "source": {
            "name": "Lopik",
            "lon": 4.945542461854009,
            "lat": 51.98535333222892
        },
        "target": {
            "name": "Nieuwegein",
            "lon": 5.094670533990026,
            "lat": 52.030822022092124
        },
        "activity": "Administrative and support service activities",
        "period": "2021-Q2",
        "type": "primary waste activity"
    },
    {
        "amount": 80,
        "source": {
            "name": "Lopik",
            "lon": 4.945542461854009,
            "lat": 51.98535333222892
        },
        "target": {
            "name": "Oudewater",
            "lon": 4.864242048403326,
            "lat": 52.027457963848256
        },
        "activity": "Administrative and support service activities",
        "period": "2021-Q2",
        "type": "primary waste activity"
    },
    {
        "amount": 16020,
        "source": {
            "name": "Lopik",
            "lon": 4.945542461854009,
            "lat": 51.98535333222892
        },
        "target": {
            "name": "Rotterdam",
            "lon": 4.316847752645658,
            "lat": 51.925429094518364
        },
        "activity": "Administrative and support service activities",
        "period": "2021-Q2",
        "type": "primary waste activity"
    },
    {
        "amount": 2240,
        "source": {
            "name": "Lopik",
            "lon": 4.945542461854009,
            "lat": 51.98535333222892
        },
        "target": {
            "name": "Soest",
            "lon": 5.296288897360924,
            "lat": 52.15619845723908
        },
        "activity": "Administrative and support service activities",
        "period": "2021-Q2",
        "type": "primary waste activity"
    },
    {
        "amount": 4720,
        "source": {
            "name": "Lopik",
            "lon": 4.945542461854009,
            "lat": 51.98535333222892
        },
        "target": {
            "name": "Stichtse Vecht",
            "lon": 5.012587029988806,
            "lat": 52.1769697628483
        },
        "activity": "Administrative and support service activities",
        "period": "2021-Q2",
        "type": "primary waste activity"
    },
    {
        "amount": 269320,
        "source": {
            "name": "Lopik",
            "lon": 4.945542461854009,
            "lat": 51.98535333222892
        },
        "target": {
            "name": "Utrecht",
            "lon": 5.074745542978898,
            "lat": 52.09113829631701
        },
        "activity": "Administrative and support service activities",
        "period": "2021-Q2",
        "type": "primary waste activity"
    },
    {
        "amount": 6500,
        "source": {
            "name": "Lopik",
            "lon": 4.945542461854009,
            "lat": 51.98535333222892
        },
        "target": {
            "name": "Woerden",
            "lon": 4.8988871248707655,
            "lat": 52.10694088575098
        },
        "activity": "Administrative and support service activities",
        "period": "2021-Q2",
        "type": "primary waste activity"
    },
    {
        "amount": 2300,
        "source": {
            "name": "Montfoort",
            "lon": 4.944044638221137,
            "lat": 52.04771077081319
        },
        "target": {
            "name": "Amsterdam",
            "lon": 4.889974960713057,
            "lat": 52.37265349694298
        },
        "activity": "Administrative and support service activities",
        "period": "2021-Q2",
        "type": "primary waste activity"
    },
    {
        "amount": 176260,
        "source": {
            "name": "Montfoort",
            "lon": 4.944044638221137,
            "lat": 52.04771077081319
        },
        "target": {
            "name": "Haarlem",
            "lon": 4.647533400697727,
            "lat": 52.3834160432325
        },
        "activity": "Administrative and support service activities",
        "period": "2021-Q2",
        "type": "primary waste activity"
    },
    {
        "amount": 96930,
        "source": {
            "name": "Montfoort",
            "lon": 4.944044638221137,
            "lat": 52.04771077081319
        },
        "target": {
            "name": "Montfoort",
            "lon": 4.944044638221137,
            "lat": 52.04771077081319
        },
        "activity": "Administrative and support service activities",
        "period": "2021-Q2",
        "type": "primary waste activity"
    },
    {
        "amount": 14860,
        "source": {
            "name": "Montfoort",
            "lon": 4.944044638221137,
            "lat": 52.04771077081319
        },
        "target": {
            "name": "Nieuwegein",
            "lon": 5.094670533990026,
            "lat": 52.030822022092124
        },
        "activity": "Administrative and support service activities",
        "period": "2021-Q2",
        "type": "primary waste activity"
    },
    {
        "amount": 880,
        "source": {
            "name": "Montfoort",
            "lon": 4.944044638221137,
            "lat": 52.04771077081319
        },
        "target": {
            "name": "Roosendaal",
            "lon": 4.4245178555849725,
            "lat": 51.5131976978065
        },
        "activity": "Administrative and support service activities",
        "period": "2021-Q2",
        "type": "primary waste activity"
    },
    {
        "amount": 1660,
        "source": {
            "name": "Montfoort",
            "lon": 4.944044638221137,
            "lat": 52.04771077081319
        },
        "target": {
            "name": "Utrecht",
            "lon": 5.074745542978898,
            "lat": 52.09113829631701
        },
        "activity": "Administrative and support service activities",
        "period": "2021-Q2",
        "type": "primary waste activity"
    },
    {
        "amount": 15240,
        "source": {
            "name": "Montfoort",
            "lon": 4.944044638221137,
            "lat": 52.04771077081319
        },
        "target": {
            "name": "Woerden",
            "lon": 4.8988871248707655,
            "lat": 52.10694088575098
        },
        "activity": "Administrative and support service activities",
        "period": "2021-Q2",
        "type": "primary waste activity"
    },
    {
        "amount": 1850,
        "source": {
            "name": "Nieuwegein",
            "lon": 5.094670533990026,
            "lat": 52.030822022092124
        },
        "target": {
            "name": "Buren",
            "lon": 5.4036557915550345,
            "lat": 51.938320813013355
        },
        "activity": "Administrative and support service activities",
        "period": "2021-Q2",
        "type": "primary waste activity"
    },
    {
        "amount": 5580,
        "source": {
            "name": "Nieuwegein",
            "lon": 5.094670533990026,
            "lat": 52.030822022092124
        },
        "target": {
            "name": "Montfoort",
            "lon": 4.944044638221137,
            "lat": 52.04771077081319
        },
        "activity": "Administrative and support service activities",
        "period": "2021-Q2",
        "type": "primary waste activity"
    },
    {
        "amount": 32508,
        "source": {
            "name": "Nieuwegein",
            "lon": 5.094670533990026,
            "lat": 52.030822022092124
        },
        "target": {
            "name": "Nieuwegein",
            "lon": 5.094670533990026,
            "lat": 52.030822022092124
        },
        "activity": "Administrative and support service activities",
        "period": "2021-Q2",
        "type": "primary waste activity"
    },
    {
        "amount": 217,
        "source": {
            "name": "Nieuwegein",
            "lon": 5.094670533990026,
            "lat": 52.030822022092124
        },
        "target": {
            "name": "Oost Gelre",
            "lon": 6.5757533647270066,
            "lat": 52.009833888394134
        },
        "activity": "Administrative and support service activities",
        "period": "2021-Q2",
        "type": "primary waste activity"
    },
    {
        "amount": 2400,
        "source": {
            "name": "Nieuwegein",
            "lon": 5.094670533990026,
            "lat": 52.030822022092124
        },
        "target": {
            "name": "Scherpenzeel",
            "lon": 5.500493412565268,
            "lat": 52.08932413449843
        },
        "activity": "Administrative and support service activities",
        "period": "2021-Q2",
        "type": "primary waste activity"
    },
    {
        "amount": 1405,
        "source": {
            "name": "Nieuwegein",
            "lon": 5.094670533990026,
            "lat": 52.030822022092124
        },
        "target": {
            "name": "Smallingerland",
            "lon": 6.038961215895858,
            "lat": 53.113411819582105
        },
        "activity": "Administrative and support service activities",
        "period": "2021-Q2",
        "type": "primary waste activity"
    },
    {
        "amount": 1260,
        "source": {
            "name": "Nieuwegein",
            "lon": 5.094670533990026,
            "lat": 52.030822022092124
        },
        "target": {
            "name": "Soest",
            "lon": 5.296288897360924,
            "lat": 52.15619845723908
        },
        "activity": "Administrative and support service activities",
        "period": "2021-Q2",
        "type": "primary waste activity"
    },
    {
        "amount": 5460,
        "source": {
            "name": "Nieuwegein",
            "lon": 5.094670533990026,
            "lat": 52.030822022092124
        },
        "target": {
            "name": "Stichtse Vecht",
            "lon": 5.012587029988806,
            "lat": 52.1769697628483
        },
        "activity": "Administrative and support service activities",
        "period": "2021-Q2",
        "type": "primary waste activity"
    },
    {
        "amount": 648340,
        "source": {
            "name": "Nieuwegein",
            "lon": 5.094670533990026,
            "lat": 52.030822022092124
        },
        "target": {
            "name": "Utrecht",
            "lon": 5.074745542978898,
            "lat": 52.09113829631701
        },
        "activity": "Administrative and support service activities",
        "period": "2021-Q2",
        "type": "primary waste activity"
    },
    {
        "amount": 3680,
        "source": {
            "name": "Nieuwegein",
            "lon": 5.094670533990026,
            "lat": 52.030822022092124
        },
        "target": {
            "name": "Woerden",
            "lon": 4.8988871248707655,
            "lat": 52.10694088575098
        },
        "activity": "Administrative and support service activities",
        "period": "2021-Q2",
        "type": "primary waste activity"
    },
    {
        "amount": 5600,
        "source": {
            "name": "Oudewater",
            "lon": 4.864242048403326,
            "lat": 52.027457963848256
        },
        "target": {
            "name": "Duiven",
            "lon": 6.018177116025047,
            "lat": 51.94655324501759
        },
        "activity": "Administrative and support service activities",
        "period": "2021-Q2",
        "type": "primary waste activity"
    },
    {
        "amount": 1260000,
        "source": {
            "name": "Oudewater",
            "lon": 4.864242048403326,
            "lat": 52.027457963848256
        },
        "target": {
            "name": "IJsselstein",
            "lon": 5.028778785161066,
            "lat": 52.027715469121475
        },
        "activity": "Administrative and support service activities",
        "period": "2021-Q2",
        "type": "primary waste activity"
    },
    {
        "amount": 4900,
        "source": {
            "name": "Oudewater",
            "lon": 4.864242048403326,
            "lat": 52.027457963848256
        },
        "target": {
            "name": "Krimpenerwaard",
            "lon": 4.7372270175536935,
            "lat": 51.952393942367294
        },
        "activity": "Administrative and support service activities",
        "period": "2021-Q2",
        "type": "primary waste activity"
    },
    {
        "amount": 20200,
        "source": {
            "name": "Oudewater",
            "lon": 4.864242048403326,
            "lat": 52.027457963848256
        },
        "target": {
            "name": "Montfoort",
            "lon": 4.944044638221137,
            "lat": 52.04771077081319
        },
        "activity": "Administrative and support service activities",
        "period": "2021-Q2",
        "type": "primary waste activity"
    },
    {
        "amount": 180,
        "source": {
            "name": "Oudewater",
            "lon": 4.864242048403326,
            "lat": 52.027457963848256
        },
        "target": {
            "name": "Oudewater",
            "lon": 4.864242048403326,
            "lat": 52.027457963848256
        },
        "activity": "Administrative and support service activities",
        "period": "2021-Q2",
        "type": "primary waste activity"
    },
    {
        "amount": 6740,
        "source": {
            "name": "Oudewater",
            "lon": 4.864242048403326,
            "lat": 52.027457963848256
        },
        "target": {
            "name": "Woerden",
            "lon": 4.8988871248707655,
            "lat": 52.10694088575098
        },
        "activity": "Administrative and support service activities",
        "period": "2021-Q2",
        "type": "primary waste activity"
    },
    {
        "amount": 9160,
        "source": {
            "name": "Renswoude",
            "lon": 5.534165447585518,
            "lat": 52.06895095374423
        },
        "target": {
            "name": "Scherpenzeel",
            "lon": 5.500493412565268,
            "lat": 52.08932413449843
        },
        "activity": "Administrative and support service activities",
        "period": "2021-Q2",
        "type": "primary waste activity"
    },
    {
        "amount": 11520,
        "source": {
            "name": "Renswoude",
            "lon": 5.534165447585518,
            "lat": 52.06895095374423
        },
        "target": {
            "name": "Veenendaal",
            "lon": 5.5556559118736475,
            "lat": 52.02367981445097
        },
        "activity": "Administrative and support service activities",
        "period": "2021-Q2",
        "type": "primary waste activity"
    },
    {
        "amount": 438,
        "source": {
            "name": "Rhenen",
            "lon": 5.5605162443959175,
            "lat": 51.98076721631182
        },
        "target": {
            "name": "Nieuwegein",
            "lon": 5.094670533990026,
            "lat": 52.030822022092124
        },
        "activity": "Administrative and support service activities",
        "period": "2021-Q2",
        "type": "primary waste activity"
    },
    {
        "amount": 1000,
        "source": {
            "name": "Rhenen",
            "lon": 5.5605162443959175,
            "lat": 51.98076721631182
        },
        "target": {
            "name": "Papendrecht",
            "lon": 4.703345065001026,
            "lat": 51.83323703411589
        },
        "activity": "Administrative and support service activities",
        "period": "2021-Q2",
        "type": "primary waste activity"
    },
    {
        "amount": 1240,
        "source": {
            "name": "Rhenen",
            "lon": 5.5605162443959175,
            "lat": 51.98076721631182
        },
        "target": {
            "name": "Renkum",
            "lon": 5.784843341614298,
            "lat": 51.989618304839134
        },
        "activity": "Administrative and support service activities",
        "period": "2021-Q2",
        "type": "primary waste activity"
    },
    {
        "amount": 142550,
        "source": {
            "name": "Rhenen",
            "lon": 5.5605162443959175,
            "lat": 51.98076721631182
        },
        "target": {
            "name": "Rhenen",
            "lon": 5.5605162443959175,
            "lat": 51.98076721631182
        },
        "activity": "Administrative and support service activities",
        "period": "2021-Q2",
        "type": "primary waste activity"
    },
    {
        "amount": 350,
        "source": {
            "name": "Rhenen",
            "lon": 5.5605162443959175,
            "lat": 51.98076721631182
        },
        "target": {
            "name": "Utrechtse Heuvelrug",
            "lon": 5.388289325925499,
            "lat": 52.034706085918806
        },
        "activity": "Administrative and support service activities",
        "period": "2021-Q2",
        "type": "primary waste activity"
    },
    {
        "amount": 13660,
        "source": {
            "name": "Rhenen",
            "lon": 5.5605162443959175,
            "lat": 51.98076721631182
        },
        "target": {
            "name": "Veenendaal",
            "lon": 5.5556559118736475,
            "lat": 52.02367981445097
        },
        "activity": "Administrative and support service activities",
        "period": "2021-Q2",
        "type": "primary waste activity"
    },
    {
        "amount": 2079740,
        "source": {
            "name": "Soest",
            "lon": 5.296288897360924,
            "lat": 52.15619845723908
        },
        "target": {
            "name": "Almere",
            "lon": 5.246665871637561,
            "lat": 52.36720720570683
        },
        "activity": "Administrative and support service activities",
        "period": "2021-Q2",
        "type": "primary waste activity"
    },
    {
        "amount": 1765325,
        "source": {
            "name": "Soest",
            "lon": 5.296288897360924,
            "lat": 52.15619845723908
        },
        "target": {
            "name": "Amersfoort",
            "lon": 5.38469845838697,
            "lat": 52.173656201960775
        },
        "activity": "Administrative and support service activities",
        "period": "2021-Q2",
        "type": "primary waste activity"
    },
    {
        "amount": 30460,
        "source": {
            "name": "Soest",
            "lon": 5.296288897360924,
            "lat": 52.15619845723908
        },
        "target": {
            "name": "Bunschoten",
            "lon": 5.357970197985367,
            "lat": 52.23868219963142
        },
        "activity": "Administrative and support service activities",
        "period": "2021-Q2",
        "type": "primary waste activity"
    },
    {
        "amount": 96340,
        "source": {
            "name": "Soest",
            "lon": 5.296288897360924,
            "lat": 52.15619845723908
        },
        "target": {
            "name": "Eemnes",
            "lon": 5.279669185493609,
            "lat": 52.249879374680546
        },
        "activity": "Administrative and support service activities",
        "period": "2021-Q2",
        "type": "primary waste activity"
    },
    {
        "amount": 455080,
        "source": {
            "name": "Soest",
            "lon": 5.296288897360924,
            "lat": 52.15619845723908
        },
        "target": {
            "name": "Ermelo",
            "lon": 5.6682275033957,
            "lat": 52.28769827150865
        },
        "activity": "Administrative and support service activities",
        "period": "2021-Q2",
        "type": "primary waste activity"
    },
    {
        "amount": 36760,
        "source": {
            "name": "Soest",
            "lon": 5.296288897360924,
            "lat": 52.15619845723908
        },
        "target": {
            "name": "Gorinchem",
            "lon": 4.9770785074563335,
            "lat": 51.83845942939786
        },
        "activity": "Administrative and support service activities",
        "period": "2021-Q2",
        "type": "primary waste activity"
    },
    {
        "amount": 138460,
        "source": {
            "name": "Soest",
            "lon": 5.296288897360924,
            "lat": 52.15619845723908
        },
        "target": {
            "name": "Lelystad",
            "lon": 5.472170342466314,
            "lat": 52.47777444553591
        },
        "activity": "Administrative and support service activities",
        "period": "2021-Q2",
        "type": "primary waste activity"
    },
    {
        "amount": 17300,
        "source": {
            "name": "Soest",
            "lon": 5.296288897360924,
            "lat": 52.15619845723908
        },
        "target": {
            "name": "Maasdriel",
            "lon": 5.2969594580860155,
            "lat": 51.776252216679495
        },
        "activity": "Administrative and support service activities",
        "period": "2021-Q2",
        "type": "primary waste activity"
    },
    {
        "amount": 59100,
        "source": {
            "name": "Soest",
            "lon": 5.296288897360924,
            "lat": 52.15619845723908
        },
        "target": {
            "name": "Moerdijk",
            "lon": 4.541922858216276,
            "lat": 51.658801585281374
        },
        "activity": "Administrative and support service activities",
        "period": "2021-Q2",
        "type": "primary waste activity"
    },
    {
        "amount": 470960,
        "source": {
            "name": "Soest",
            "lon": 5.296288897360924,
            "lat": 52.15619845723908
        },
        "target": {
            "name": "Molenwaard",
            "lon": 4.8015517385979205,
            "lat": 51.89080797678613
        },
        "activity": "Administrative and support service activities",
        "period": "2021-Q2",
        "type": "primary waste activity"
    },
    {
        "amount": 140,
        "source": {
            "name": "Soest",
            "lon": 5.296288897360924,
            "lat": 52.15619845723908
        },
        "target": {
            "name": "Nieuwkoop",
            "lon": 4.779458143711321,
            "lat": 52.170790811954454
        },
        "activity": "Administrative and support service activities",
        "period": "2021-Q2",
        "type": "primary waste activity"
    },
    {
        "amount": 8974150,
        "source": {
            "name": "Soest",
            "lon": 5.296288897360924,
            "lat": 52.15619845723908
        },
        "target": {
            "name": "Soest",
            "lon": 5.296288897360924,
            "lat": 52.15619845723908
        },
        "activity": "Administrative and support service activities",
        "period": "2021-Q2",
        "type": "primary waste activity"
    },
    {
        "amount": 3040,
        "source": {
            "name": "Soest",
            "lon": 5.296288897360924,
            "lat": 52.15619845723908
        },
        "target": {
            "name": "Son en Breugel",
            "lon": 5.482462227753438,
            "lat": 51.51637512474076
        },
        "activity": "Administrative and support service activities",
        "period": "2021-Q2",
        "type": "primary waste activity"
    },
    {
        "amount": 19800,
        "source": {
            "name": "Soest",
            "lon": 5.296288897360924,
            "lat": 52.15619845723908
        },
        "target": {
            "name": "Stichtse Vecht",
            "lon": 5.012587029988806,
            "lat": 52.1769697628483
        },
        "activity": "Administrative and support service activities",
        "period": "2021-Q2",
        "type": "primary waste activity"
    },
    {
        "amount": 8720,
        "source": {
            "name": "Soest",
            "lon": 5.296288897360924,
            "lat": 52.15619845723908
        },
        "target": {
            "name": "Utrecht",
            "lon": 5.074745542978898,
            "lat": 52.09113829631701
        },
        "activity": "Administrative and support service activities",
        "period": "2021-Q2",
        "type": "primary waste activity"
    },
    {
        "amount": 9200,
        "source": {
            "name": "Soest",
            "lon": 5.296288897360924,
            "lat": 52.15619845723908
        },
        "target": {
            "name": "Utrechtse Heuvelrug",
            "lon": 5.388289325925499,
            "lat": 52.034706085918806
        },
        "activity": "Administrative and support service activities",
        "period": "2021-Q2",
        "type": "primary waste activity"
    },
    {
        "amount": 16760,
        "source": {
            "name": "Soest",
            "lon": 5.296288897360924,
            "lat": 52.15619845723908
        },
        "target": {
            "name": "Zeist",
            "lon": 5.255181841845734,
            "lat": 52.101975704130375
        },
        "activity": "Administrative and support service activities",
        "period": "2021-Q2",
        "type": "primary waste activity"
    },
    {
        "amount": 2930,
        "source": {
            "name": "Soest",
            "lon": 5.296288897360924,
            "lat": 52.15619845723908
        },
        "target": {
            "name": "Zwartewaterland",
            "lon": 6.0643585274622005,
            "lat": 52.602426134167864
        },
        "activity": "Administrative and support service activities",
        "period": "2021-Q2",
        "type": "primary waste activity"
    },
    {
        "amount": 44,
        "source": {
            "name": "Soest",
            "lon": 5.296288897360924,
            "lat": 52.15619845723908
        },
        "target": {
            "name": "Zwolle",
            "lon": 6.1183656865655465,
            "lat": 52.51870032561825
        },
        "activity": "Administrative and support service activities",
        "period": "2021-Q2",
        "type": "primary waste activity"
    },
    {
        "amount": 154060,
        "source": {
            "name": "Stichtse Vecht",
            "lon": 5.012587029988806,
            "lat": 52.1769697628483
        },
        "target": {
            "name": "Almere",
            "lon": 5.246665871637561,
            "lat": 52.36720720570683
        },
        "activity": "Administrative and support service activities",
        "period": "2021-Q2",
        "type": "primary waste activity"
    },
    {
        "amount": 6780,
        "source": {
            "name": "Stichtse Vecht",
            "lon": 5.012587029988806,
            "lat": 52.1769697628483
        },
        "target": {
            "name": "Amersfoort",
            "lon": 5.38469845838697,
            "lat": 52.173656201960775
        },
        "activity": "Administrative and support service activities",
        "period": "2021-Q2",
        "type": "primary waste activity"
    },
    {
        "amount": 50380,
        "source": {
            "name": "Stichtse Vecht",
            "lon": 5.012587029988806,
            "lat": 52.1769697628483
        },
        "target": {
            "name": "De Ronde Venen",
            "lon": 4.917327835064022,
            "lat": 52.226343817520174
        },
        "activity": "Administrative and support service activities",
        "period": "2021-Q2",
        "type": "primary waste activity"
    },
    {
        "amount": 4280,
        "source": {
            "name": "Stichtse Vecht",
            "lon": 5.012587029988806,
            "lat": 52.1769697628483
        },
        "target": {
            "name": "Houten",
            "lon": 5.1816978796531545,
            "lat": 52.00410185651591
        },
        "activity": "Administrative and support service activities",
        "period": "2021-Q2",
        "type": "primary waste activity"
    },
    {
        "amount": 12500,
        "source": {
            "name": "Stichtse Vecht",
            "lon": 5.012587029988806,
            "lat": 52.1769697628483
        },
        "target": {
            "name": "Nieuwegein",
            "lon": 5.094670533990026,
            "lat": 52.030822022092124
        },
        "activity": "Administrative and support service activities",
        "period": "2021-Q2",
        "type": "primary waste activity"
    },
    {
        "amount": 179320,
        "source": {
            "name": "Stichtse Vecht",
            "lon": 5.012587029988806,
            "lat": 52.1769697628483
        },
        "target": {
            "name": "Stichtse Vecht",
            "lon": 5.012587029988806,
            "lat": 52.1769697628483
        },
        "activity": "Administrative and support service activities",
        "period": "2021-Q2",
        "type": "primary waste activity"
    },
    {
        "amount": 2416700,
        "source": {
            "name": "Stichtse Vecht",
            "lon": 5.012587029988806,
            "lat": 52.1769697628483
        },
        "target": {
            "name": "Utrecht",
            "lon": 5.074745542978898,
            "lat": 52.09113829631701
        },
        "activity": "Administrative and support service activities",
        "period": "2021-Q2",
        "type": "primary waste activity"
    },
    {
        "amount": 8420,
        "source": {
            "name": "Stichtse Vecht",
            "lon": 5.012587029988806,
            "lat": 52.1769697628483
        },
        "target": {
            "name": "Woerden",
            "lon": 4.8988871248707655,
            "lat": 52.10694088575098
        },
        "activity": "Administrative and support service activities",
        "period": "2021-Q2",
        "type": "primary waste activity"
    },
    {
        "amount": 1633,
        "source": {
            "name": "Utrecht",
            "lon": 5.074745542978898,
            "lat": 52.09113829631701
        },
        "target": {
            "name": "Amersfoort",
            "lon": 5.38469845838697,
            "lat": 52.173656201960775
        },
        "activity": "Administrative and support service activities",
        "period": "2021-Q2",
        "type": "primary waste activity"
    },
    {
        "amount": 100,
        "source": {
            "name": "Utrecht",
            "lon": 5.074745542978898,
            "lat": 52.09113829631701
        },
        "target": {
            "name": "Bronckhorst",
            "lon": 6.302944598931026,
            "lat": 52.0452404361141
        },
        "activity": "Administrative and support service activities",
        "period": "2021-Q2",
        "type": "primary waste activity"
    },
    {
        "amount": 5700,
        "source": {
            "name": "Utrecht",
            "lon": 5.074745542978898,
            "lat": 52.09113829631701
        },
        "target": {
            "name": "Buren",
            "lon": 5.4036557915550345,
            "lat": 51.938320813013355
        },
        "activity": "Administrative and support service activities",
        "period": "2021-Q2",
        "type": "primary waste activity"
    },
    {
        "amount": 12380,
        "source": {
            "name": "Utrecht",
            "lon": 5.074745542978898,
            "lat": 52.09113829631701
        },
        "target": {
            "name": "De Ronde Venen",
            "lon": 4.917327835064022,
            "lat": 52.226343817520174
        },
        "activity": "Administrative and support service activities",
        "period": "2021-Q2",
        "type": "primary waste activity"
    },
    {
        "amount": 2195,
        "source": {
            "name": "Utrecht",
            "lon": 5.074745542978898,
            "lat": 52.09113829631701
        },
        "target": {
            "name": "Geertruidenberg",
            "lon": 4.881580997932283,
            "lat": 51.697143708388786
        },
        "activity": "Administrative and support service activities",
        "period": "2021-Q2",
        "type": "primary waste activity"
    },
    {
        "amount": 9600,
        "source": {
            "name": "Utrecht",
            "lon": 5.074745542978898,
            "lat": 52.09113829631701
        },
        "target": {
            "name": "Geldermalsen",
            "lon": 5.220939470909649,
            "lat": 51.887843523238224
        },
        "activity": "Administrative and support service activities",
        "period": "2021-Q2",
        "type": "primary waste activity"
    },
    {
        "amount": 360,
        "source": {
            "name": "Utrecht",
            "lon": 5.074745542978898,
            "lat": 52.09113829631701
        },
        "target": {
            "name": "Gooise Meren",
            "lon": 5.134572308942595,
            "lat": 52.301412228066866
        },
        "activity": "Administrative and support service activities",
        "period": "2021-Q2",
        "type": "primary waste activity"
    },
    {
        "amount": 984,
        "source": {
            "name": "Utrecht",
            "lon": 5.074745542978898,
            "lat": 52.09113829631701
        },
        "target": {
            "name": "Gorinchem",
            "lon": 4.9770785074563335,
            "lat": 51.83845942939786
        },
        "activity": "Administrative and support service activities",
        "period": "2021-Q2",
        "type": "primary waste activity"
    },
    {
        "amount": 9600,
        "source": {
            "name": "Utrecht",
            "lon": 5.074745542978898,
            "lat": 52.09113829631701
        },