[
    {
        "amount": 223880,
        "source": {
            "name": "Amersfoort",
            "lon": 5.38469845838697,
            "lat": 52.173656201960775
        },
        "target": {
            "name": "Alkmaar",
            "lon": 4.803289225700341,
            "lat": 52.60180952361393
        },
        "process": "incineration",
        "period": "2021-Q2",
        "type": "primary waste process"
    },
    {
        "amount": 6066500,
        "source": {
            "name": "Amersfoort",
            "lon": 5.38469845838697,
            "lat": 52.173656201960775
        },
        "target": {
            "name": "Amsterdam",
            "lon": 4.889974960713057,
            "lat": 52.37265349694298
        },
        "process": "incineration",
        "period": "2021-Q2",
        "type": "primary waste process"
    },
    {
        "amount": 318880,
        "source": {
            "name": "Amersfoort",
            "lon": 5.38469845838697,
            "lat": 52.173656201960775
        },
        "target": {
            "name": "Beuningen",
            "lon": 5.740270399910066,
            "lat": 51.862813033423656
        },
        "process": "incineration",
        "period": "2021-Q2",
        "type": "primary waste process"
    },
    {
        "amount": 56260,
        "source": {
            "name": "Amersfoort",
            "lon": 5.38469845838697,
            "lat": 52.173656201960775
        },
        "target": {
            "name": "Hengelo",
            "lon": 6.778222743511161,
            "lat": 52.25491825909896
        },
        "process": "incineration",
        "period": "2021-Q2",
        "type": "primary waste process"
    },
    {
        "amount": 10051440,
        "source": {
            "name": "Amersfoort",
            "lon": 5.38469845838697,
            "lat": 52.173656201960775
        },
        "target": {
            "name": "Midden-Drenthe",
            "lon": 6.542666255270569,
            "lat": 52.86740520712986
        },
        "process": "incineration",
        "period": "2021-Q2",
        "type": "primary waste process"
    },
    {
        "amount": 2085600,
        "source": {
            "name": "Amersfoort",
            "lon": 5.38469845838697,
            "lat": 52.173656201960775
        },
        "target": {
            "name": "Rotterdam",
            "lon": 4.316847752645658,
            "lat": 51.925429094518364
        },
        "process": "incineration",
        "period": "2021-Q2",
        "type": "primary waste process"
    },
    {
        "amount": 1140,
        "source": {
            "name": "Bunnik",
            "lon": 5.216923375058714,
            "lat": 52.04092103321746
        },
        "target": {
            "name": "Beverwijk",
            "lon": 4.654000308885051,
            "lat": 52.48406703093382
        },
        "process": "incineration",
        "period": "2021-Q2",
        "type": "primary waste process"
    },
    {
        "amount": 165400,
        "source": {
            "name": "Bunschoten",
            "lon": 5.357970197985367,
            "lat": 52.23868219963142
        },
        "target": {
            "name": "Amsterdam",
            "lon": 4.889974960713057,
            "lat": 52.37265349694298
        },
        "process": "incineration",
        "period": "2021-Q2",
        "type": "primary waste process"
    },
    {
        "amount": 452240,
        "source": {
            "name": "Bunschoten",
            "lon": 5.357970197985367,
            "lat": 52.23868219963142
        },
        "target": {
            "name": "Midden-Drenthe",
            "lon": 6.542666255270569,
            "lat": 52.86740520712986
        },
        "process": "incineration",
        "period": "2021-Q2",
        "type": "primary waste process"
    },
    {
        "amount": 233860,
        "source": {
            "name": "Bunschoten",
            "lon": 5.357970197985367,
            "lat": 52.23868219963142
        },
        "target": {
            "name": "Rotterdam",
            "lon": 4.316847752645658,
            "lat": 51.925429094518364
        },
        "process": "incineration",
        "period": "2021-Q2",
        "type": "primary waste process"
    },
    {
        "amount": 11620,
        "source": {
            "name": "De Bilt",
            "lon": 5.174306046007605,
            "lat": 52.14174148295569
        },
        "target": {
            "name": "Amsterdam",
            "lon": 4.889974960713057,
            "lat": 52.37265349694298
        },
        "process": "incineration",
        "period": "2021-Q2",
        "type": "primary waste process"
    },
    {
        "amount": 14380,
        "source": {
            "name": "De Bilt",
            "lon": 5.174306046007605,
            "lat": 52.14174148295569
        },
        "target": {
            "name": "Duiven",
            "lon": 6.018177116025047,
            "lat": 51.94655324501759
        },
        "process": "incineration",
        "period": "2021-Q2",
        "type": "primary waste process"
    },
    {
        "amount": 1294680,
        "source": {
            "name": "De Ronde Venen",
            "lon": 4.917327835064022,
            "lat": 52.226343817520174
        },
        "target": {
            "name": "Amsterdam",
            "lon": 4.889974960713057,
            "lat": 52.37265349694298
        },
        "process": "incineration",
        "period": "2021-Q2",
        "type": "primary waste process"
    },
    {
        "amount": 596640,
        "source": {
            "name": "De Ronde Venen",
            "lon": 4.917327835064022,
            "lat": 52.226343817520174
        },
        "target": {
            "name": "Moerdijk",
            "lon": 4.541922858216276,
            "lat": 51.658801585281374
        },
        "process": "incineration",
        "period": "2021-Q2",
        "type": "primary waste process"
    },
    {
        "amount": 973480,
        "source": {
            "name": "Houten",
            "lon": 5.1816978796531545,
            "lat": 52.00410185651591
        },
        "target": {
            "name": "Amsterdam",
            "lon": 4.889974960713057,
            "lat": 52.37265349694298
        },
        "process": "incineration",
        "period": "2021-Q2",
        "type": "primary waste process"
    },
    {
        "amount": 1084580,
        "source": {
            "name": "Houten",
            "lon": 5.1816978796531545,
            "lat": 52.00410185651591
        },
        "target": {
            "name": "Dordrecht",
            "lon": 4.709578864026262,
            "lat": 51.78204680298166
        },
        "process": "incineration",
        "period": "2021-Q2",
        "type": "primary waste process"
    },
    {
        "amount": 18980,
        "source": {
            "name": "Houten",
            "lon": 5.1816978796531545,
            "lat": 52.00410185651591
        },
        "target": {
            "name": "Duiven",
            "lon": 6.018177116025047,
            "lat": 51.94655324501759
        },
        "process": "incineration",
        "period": "2021-Q2",
        "type": "primary waste process"
    },
    {
        "amount": 59800,
        "source": {
            "name": "Houten",
            "lon": 5.1816978796531545,
            "lat": 52.00410185651591
        },
        "target": {
            "name": "Midden-Drenthe",
            "lon": 6.542666255270569,
            "lat": 52.86740520712986
        },
        "process": "incineration",
        "period": "2021-Q2",
        "type": "primary waste process"
    },
    {
        "amount": 3296200,
        "source": {
            "name": "Houten",
            "lon": 5.1816978796531545,
            "lat": 52.00410185651591
        },
        "target": {
            "name": "Moerdijk",
            "lon": 4.541922858216276,
            "lat": 51.658801585281374
        },
        "process": "incineration",
        "period": "2021-Q2",
        "type": "primary waste process"
    },
    {
        "amount": 980,
        "source": {
            "name": "Houten",
            "lon": 5.1816978796531545,
            "lat": 52.00410185651591
        },
        "target": {
            "name": "Roosendaal",
            "lon": 4.4245178555849725,
            "lat": 51.5131976978065
        },
        "process": "incineration",
        "period": "2021-Q2",
        "type": "primary waste process"
    },
    {
        "amount": 126980,
        "source": {
            "name": "Houten",
            "lon": 5.1816978796531545,
            "lat": 52.00410185651591
        },
        "target": {
            "name": "Rotterdam",
            "lon": 4.316847752645658,
            "lat": 51.925429094518364
        },
        "process": "incineration",
        "period": "2021-Q2",
        "type": "primary waste process"
    },
    {
        "amount": 1313940,
        "source": {
            "name": "Houten",
            "lon": 5.1816978796531545,
            "lat": 52.00410185651591
        },
        "target": {
            "name": "Utrecht",
            "lon": 5.074745542978898,
            "lat": 52.09113829631701
        },
        "process": "incineration",
        "period": "2021-Q2",
        "type": "primary waste process"
    },
    {
        "amount": 25580,
        "source": {
            "name": "IJsselstein",
            "lon": 5.028778785161066,
            "lat": 52.027715469121475
        },
        "target": {
            "name": "Duiven",
            "lon": 6.018177116025047,
            "lat": 51.94655324501759
        },
        "process": "incineration",
        "period": "2021-Q2",
        "type": "primary waste process"
    },
    {
        "amount": 2814580,
        "source": {
            "name": "IJsselstein",
            "lon": 5.028778785161066,
            "lat": 52.027715469121475
        },
        "target": {
            "name": "Moerdijk",
            "lon": 4.541922858216276,
            "lat": 51.658801585281374
        },
        "process": "incineration",
        "period": "2021-Q2",
        "type": "primary waste process"
    },
    {
        "amount": 16020,
        "source": {
            "name": "Lopik",
            "lon": 4.945542461854009,
            "lat": 51.98535333222892
        },
        "target": {
            "name": "Rotterdam",
            "lon": 4.316847752645658,
            "lat": 51.925429094518364
        },
        "process": "incineration",
        "period": "2021-Q2",
        "type": "primary waste process"
    },
    {
        "amount": 14548020,
        "source": {
            "name": "Nieuwegein",
            "lon": 5.094670533990026,
            "lat": 52.030822022092124
        },
        "target": {
            "name": "Amsterdam",
            "lon": 4.889974960713057,
            "lat": 52.37265349694298
        },
        "process": "incineration",
        "period": "2021-Q2",
        "type": "primary waste process"
    },
    {
        "amount": 130160,
        "source": {
            "name": "Nieuwegein",
            "lon": 5.094670533990026,
            "lat": 52.030822022092124
        },
        "target": {
            "name": "Beuningen",
            "lon": 5.740270399910066,
            "lat": 51.862813033423656
        },
        "process": "incineration",
        "period": "2021-Q2",
        "type": "primary waste process"
    },
    {
        "amount": 4388460,
        "source": {
            "name": "Nieuwegein",
            "lon": 5.094670533990026,
            "lat": 52.030822022092124
        },
        "target": {
            "name": "Cuijk",
            "lon": 5.851362585795265,
            "lat": 51.71830538814893
        },
        "process": "incineration",
        "period": "2021-Q2",
        "type": "primary waste process"
    },
    {
        "amount": 199580,
        "source": {
            "name": "Nieuwegein",
            "lon": 5.094670533990026,
            "lat": 52.030822022092124
        },
        "target": {
            "name": "Delfzijl",
            "lon": 6.929925121216071,
            "lat": 53.32002567557951
        },
        "process": "incineration",
        "period": "2021-Q2",
        "type": "primary waste process"
    },
    {
        "amount": 989100,
        "source": {
            "name": "Nieuwegein",
            "lon": 5.094670533990026,
            "lat": 52.030822022092124
        },
        "target": {
            "name": "Duiven",
            "lon": 6.018177116025047,
            "lat": 51.94655324501759
        },
        "process": "incineration",
        "period": "2021-Q2",
        "type": "primary waste process"
    },
    {
        "amount": 2846980,
        "source": {
            "name": "Nieuwegein",
            "lon": 5.094670533990026,
            "lat": 52.030822022092124
        },
        "target": {
            "name": "Hengelo",
            "lon": 6.778222743511161,
            "lat": 52.25491825909896
        },
        "process": "incineration",
        "period": "2021-Q2",
        "type": "primary waste process"
    },
    {
        "amount": 2591230,
        "source": {
            "name": "Nieuwegein",
            "lon": 5.094670533990026,
            "lat": 52.030822022092124
        },
        "target": {
            "name": "Roermond",
            "lon": 6.011493376781833,
            "lat": 51.201195698536424
        },
        "process": "incineration",
        "period": "2021-Q2",
        "type": "primary waste process"
    },
    {
        "amount": 4266260,
        "source": {
            "name": "Nieuwegein",
            "lon": 5.094670533990026,
            "lat": 52.030822022092124
        },
        "target": {
            "name": "Rotterdam",
            "lon": 4.316847752645658,
            "lat": 51.925429094518364
        },
        "process": "incineration",
        "period": "2021-Q2",
        "type": "primary waste process"
    },
    {
        "amount": 586360,
        "source": {
            "name": "Nieuwegein",
            "lon": 5.094670533990026,
            "lat": 52.030822022092124
        },
        "target": {
            "name": "Utrecht",
            "lon": 5.074745542978898,
            "lat": 52.09113829631701
        },
        "process": "incineration",
        "period": "2021-Q2",
        "type": "primary waste process"
    },
    {
        "amount": 663480,
        "source": {
            "name": "Oudewater",
            "lon": 4.864242048403326,
            "lat": 52.027457963848256
        },
        "target": {
            "name": "Beuningen",
            "lon": 5.740270399910066,
            "lat": 51.862813033423656
        },
        "process": "incineration",
        "period": "2021-Q2",
        "type": "primary waste process"
    },
    {
        "amount": 387880,
        "source": {
            "name": "Oudewater",
            "lon": 4.864242048403326,
            "lat": 52.027457963848256
        },
        "target": {
            "name": "Delfzijl",
            "lon": 6.929925121216071,
            "lat": 53.32002567557951
        },
        "process": "incineration",
        "period": "2021-Q2",
        "type": "primary waste process"
    },
    {
        "amount": 16560,
        "source": {
            "name": "Oudewater",
            "lon": 4.864242048403326,
            "lat": 52.027457963848256
        },
        "target": {
            "name": "Dordrecht",
            "lon": 4.709578864026262,
            "lat": 51.78204680298166
        },
        "process": "incineration",
        "period": "2021-Q2",
        "type": "primary waste process"
    },
    {
        "amount": 5600,
        "source": {
            "name": "Oudewater",
            "lon": 4.864242048403326,
            "lat": 52.027457963848256
        },
        "target": {
            "name": "Duiven",
            "lon": 6.018177116025047,
            "lat": 51.94655324501759
        },
        "process": "incineration",
        "period": "2021-Q2",
        "type": "primary waste process"
    },
    {
        "amount": 294860,
        "source": {
            "name": "Oudewater",
            "lon": 4.864242048403326,
            "lat": 52.027457963848256
        },
        "target": {
            "name": "Moerdijk",
            "lon": 4.541922858216276,
            "lat": 51.658801585281374
        },
        "process": "incineration",
        "period": "2021-Q2",
        "type": "primary waste process"
    },
    {
        "amount": 148920,
        "source": {
            "name": "Oudewater",
            "lon": 4.864242048403326,
            "lat": 52.027457963848256
        },
        "target": {
            "name": "Rotterdam",
            "lon": 4.316847752645658,
            "lat": 51.925429094518364
        },
        "process": "incineration",
        "period": "2021-Q2",
        "type": "primary waste process"
    },
    {
        "amount": 216740,
        "source": {
            "name": "Rhenen",
            "lon": 5.5605162443959175,
            "lat": 51.98076721631182
        },
        "target": {
            "name": "Delfzijl",
            "lon": 6.929925121216071,
            "lat": 53.32002567557951
        },
        "process": "incineration",
        "period": "2021-Q2",
        "type": "primary waste process"
    },
    {
        "amount": 8680,
        "source": {
            "name": "Rhenen",
            "lon": 5.5605162443959175,
            "lat": 51.98076721631182
        },
        "target": {
            "name": "Duiven",
            "lon": 6.018177116025047,
            "lat": 51.94655324501759
        },
        "process": "incineration",
        "period": "2021-Q2",
        "type": "primary waste process"
    },
    {
        "amount": 2096500,
        "source": {
            "name": "Rhenen",
            "lon": 5.5605162443959175,
            "lat": 51.98076721631182
        },
        "target": {
            "name": "Rotterdam",
            "lon": 4.316847752645658,
            "lat": 51.925429094518364
        },
        "process": "incineration",
        "period": "2021-Q2",
        "type": "primary waste process"
    },
    {
        "amount": 805620,
        "source": {
            "name": "Soest",
            "lon": 5.296288897360924,
            "lat": 52.15619845723908
        },
        "target": {
            "name": "Amsterdam",
            "lon": 4.889974960713057,
            "lat": 52.37265349694298
        },
        "process": "incineration",
        "period": "2021-Q2",
        "type": "primary waste process"
    },
    {
        "amount": 13200,
        "source": {
            "name": "Soest",
            "lon": 5.296288897360924,
            "lat": 52.15619845723908
        },
        "target": {
            "name": "Beuningen",
            "lon": 5.740270399910066,
            "lat": 51.862813033423656
        },
        "process": "incineration",
        "period": "2021-Q2",
        "type": "primary waste process"
    },
    {
        "amount": 1237520,
        "source": {
            "name": "Soest",
            "lon": 5.296288897360924,
            "lat": 52.15619845723908
        },
        "target": {
            "name": "Utrecht",
            "lon": 5.074745542978898,
            "lat": 52.09113829631701
        },
        "process": "incineration",
        "period": "2021-Q2",
        "type": "primary waste process"
    },
    {
        "amount": 32340,
        "source": {
            "name": "Stichtse Vecht",
            "lon": 5.012587029988806,
            "lat": 52.1769697628483
        },
        "target": {
            "name": "Amsterdam",
            "lon": 4.889974960713057,
            "lat": 52.37265349694298
        },
        "process": "incineration",
        "period": "2021-Q2",
        "type": "primary waste process"
    },
    {
        "amount": 978880,
        "source": {
            "name": "Stichtse Vecht",
            "lon": 5.012587029988806,
            "lat": 52.1769697628483
        },
        "target": {
            "name": "Delfzijl",
            "lon": 6.929925121216071,
            "lat": 53.32002567557951
        },
        "process": "incineration",
        "period": "2021-Q2",
        "type": "primary waste process"
    },
    {
        "amount": 226300,
        "source": {
            "name": "Stichtse Vecht",
            "lon": 5.012587029988806,
            "lat": 52.1769697628483
        },
        "target": {
            "name": "Duiven",
            "lon": 6.018177116025047,
            "lat": 51.94655324501759
        },
        "process": "incineration",
        "period": "2021-Q2",
        "type": "primary waste process"
    },
    {
        "amount": 73980,
        "source": {
            "name": "Stichtse Vecht",
            "lon": 5.012587029988806,
            "lat": 52.1769697628483
        },
        "target": {
            "name": "Midden-Drenthe",
            "lon": 6.542666255270569,
            "lat": 52.86740520712986
        },
        "process": "incineration",
        "period": "2021-Q2",
        "type": "primary waste process"
    },
    {
        "amount": 500,
        "source": {
            "name": "Stichtse Vecht",
            "lon": 5.012587029988806,
            "lat": 52.1769697628483
        },
        "target": {
            "name": "Nieuwegein",
            "lon": 5.094670533990026,
            "lat": 52.030822022092124
        },
        "process": "incineration",
        "period": "2021-Q2",
        "type": "primary waste process"
    },
    {
        "amount": 714180,
        "source": {
            "name": "Stichtse Vecht",
            "lon": 5.012587029988806,
            "lat": 52.1769697628483
        },
        "target": {
            "name": "Rotterdam",
            "lon": 4.316847752645658,
            "lat": 51.925429094518364
        },
        "process": "incineration",
        "period": "2021-Q2",
        "type": "primary waste process"
    },
    {
        "amount": 151080,
        "source": {
            "name": "Stichtse Vecht",
            "lon": 5.012587029988806,
            "lat": 52.1769697628483
        },
        "target": {
            "name": "Stichtse Vecht",
            "lon": 5.012587029988806,
            "lat": 52.1769697628483
        },
        "process": "incineration",
        "period": "2021-Q2",
        "type": "primary waste process"
    },
    {
        "amount": 1061160,
        "source": {
            "name": "Utrecht",
            "lon": 5.074745542978898,
            "lat": 52.09113829631701
        },
        "target": {
            "name": "Alkmaar",
            "lon": 4.803289225700341,
            "lat": 52.60180952361393
        },
        "process": "incineration",
        "period": "2021-Q2",
        "type": "primary waste process"
    },
    {
        "amount": 1200300,
        "source": {
            "name": "Utrecht",
            "lon": 5.074745542978898,
            "lat": 52.09113829631701
        },
        "target": {
            "name": "Amsterdam",
            "lon": 4.889974960713057,
            "lat": 52.37265349694298
        },
        "process": "incineration",
        "period": "2021-Q2",
        "type": "primary waste process"
    },
    {
        "amount": 45240,
        "source": {
            "name": "Utrecht",
            "lon": 5.074745542978898,
            "lat": 52.09113829631701
        },
        "target": {
            "name": "Delfzijl",
            "lon": 6.929925121216071,
            "lat": 53.32002567557951
        },
        "process": "incineration",
        "period": "2021-Q2",
        "type": "primary waste process"
    },
    {
        "amount": 7147240,
        "source": {
            "name": "Utrecht",
            "lon": 5.074745542978898,
            "lat": 52.09113829631701
        },
        "target": {
            "name": "Duiven",
            "lon": 6.018177116025047,
            "lat": 51.94655324501759
        },
        "process": "incineration",
        "period": "2021-Q2",
        "type": "primary waste process"
    },
    {
        "amount": 71640,
        "source": {
            "name": "Utrecht",
            "lon": 5.074745542978898,
            "lat": 52.09113829631701
        },
        "target": {
            "name": "Midden-Drenthe",
            "lon": 6.542666255270569,
            "lat": 52.86740520712986
        },
        "process": "incineration",
        "period": "2021-Q2",
        "type": "primary waste process"
    },
    {
        "amount": 10807420,
        "source": {
            "name": "Utrecht",
            "lon": 5.074745542978898,
            "lat": 52.09113829631701
        },
        "target": {
            "name": "Moerdijk",
            "lon": 4.541922858216276,
            "lat": 51.658801585281374
        },
        "process": "incineration",
        "period": "2021-Q2",
        "type": "primary waste process"
    },
    {
        "amount": 1094920,
        "source": {
            "name": "Utrecht",
            "lon": 5.074745542978898,
            "lat": 52.09113829631701
        },
        "target": {
            "name": "Roosendaal",
            "lon": 4.4245178555849725,
            "lat": 51.5131976978065
        },
        "process": "incineration",
        "period": "2021-Q2",
        "type": "primary waste process"
    },
    {
        "amount": 1810500,
        "source": {
            "name": "Utrecht",
            "lon": 5.074745542978898,
            "lat": 52.09113829631701
        },
        "target": {
            "name": "Rotterdam",
            "lon": 4.316847752645658,
            "lat": 51.925429094518364
        },
        "process": "incineration",
        "period": "2021-Q2",
        "type": "primary waste process"
    },
    {
        "amount": 428300,
        "source": {
            "name": "Utrecht",
            "lon": 5.074745542978898,
            "lat": 52.09113829631701
        },
        "target": {
            "name": "Utrecht",
            "lon": 5.074745542978898,
            "lat": 52.09113829631701
        },
        "process": "incineration",
        "period": "2021-Q2",
        "type": "primary waste process"
    },
    {
        "amount": 128340,
        "source": {
            "name": "Utrechtse Heuvelrug",
            "lon": 5.388289325925499,
            "lat": 52.034706085918806
        },
        "target": {
            "name": "Alkmaar",
            "lon": 4.803289225700341,
            "lat": 52.60180952361393
        },
        "process": "incineration",
        "period": "2021-Q2",
        "type": "primary waste process"
    },
    {
        "amount": 54660,
        "source": {
            "name": "Utrechtse Heuvelrug",
            "lon": 5.388289325925499,
            "lat": 52.034706085918806
        },
        "target": {
            "name": "Dordrecht",
            "lon": 4.709578864026262,
            "lat": 51.78204680298166
        },
        "process": "incineration",
        "period": "2021-Q2",
        "type": "primary waste process"
    },
    {
        "amount": 1068060,
        "source": {
            "name": "Utrechtse Heuvelrug",
            "lon": 5.388289325925499,
            "lat": 52.034706085918806
        },
        "target": {
            "name": "Duiven",
            "lon": 6.018177116025047,
            "lat": 51.94655324501759
        },
        "process": "incineration",
        "period": "2021-Q2",
        "type": "primary waste process"
    },
    {
        "amount": 7120,
        "source": {
            "name": "Utrechtse Heuvelrug",
            "lon": 5.388289325925499,
            "lat": 52.034706085918806
        },
        "target": {
            "name": "Utrechtse Heuvelrug",
            "lon": 5.388289325925499,
            "lat": 52.034706085918806
        },
        "process": "incineration",
        "period": "2021-Q2",
        "type": "primary waste process"
    },
    {
        "amount": 151580,
        "source": {
            "name": "Veenendaal",
            "lon": 5.5556559118736475,
            "lat": 52.02367981445097
        },
        "target": {
            "name": "Amsterdam",
            "lon": 4.889974960713057,
            "lat": 52.37265349694298
        },
        "process": "incineration",
        "period": "2021-Q2",
        "type": "primary waste process"
    },
    {
        "amount": 775840,
        "source": {
            "name": "Veenendaal",
            "lon": 5.5556559118736475,
            "lat": 52.02367981445097
        },
        "target": {
            "name": "Delfzijl",
            "lon": 6.929925121216071,
            "lat": 53.32002567557951
        },
        "process": "incineration",
        "period": "2021-Q2",
        "type": "primary waste process"
    },
    {
        "amount": 1723060,
        "source": {
            "name": "Veenendaal",
            "lon": 5.5556559118736475,
            "lat": 52.02367981445097
        },
        "target": {
            "name": "Dordrecht",
            "lon": 4.709578864026262,
            "lat": 51.78204680298166
        },
        "process": "incineration",
        "period": "2021-Q2",
        "type": "primary waste process"
    },
    {
        "amount": 134160,
        "source": {
            "name": "Veenendaal",
            "lon": 5.5556559118736475,
            "lat": 52.02367981445097
        },
        "target": {
            "name": "Duiven",
            "lon": 6.018177116025047,
            "lat": 51.94655324501759
        },
        "process": "incineration",
        "period": "2021-Q2",
        "type": "primary waste process"
    },
    {
        "amount": 327280,
        "source": {
            "name": "Veenendaal",
            "lon": 5.5556559118736475,
            "lat": 52.02367981445097
        },
        "target": {
            "name": "Hengelo",
            "lon": 6.778222743511161,
            "lat": 52.25491825909896
        },
        "process": "incineration",
        "period": "2021-Q2",
        "type": "primary waste process"
    },
    {
        "amount": 546580,
        "source": {
            "name": "Veenendaal",
            "lon": 5.5556559118736475,
            "lat": 52.02367981445097
        },
        "target": {
            "name": "Midden-Drenthe",
            "lon": 6.542666255270569,
            "lat": 52.86740520712986
        },
        "process": "incineration",
        "period": "2021-Q2",
        "type": "primary waste process"
    },
    {
        "amount": 13920,
        "source": {
            "name": "Veenendaal",
            "lon": 5.5556559118736475,
            "lat": 52.02367981445097
        },
        "target": {
            "name": "Roosendaal",
            "lon": 4.4245178555849725,
            "lat": 51.5131976978065
        },
        "process": "incineration",
        "period": "2021-Q2",
        "type": "primary waste process"
    },
    {
        "amount": 40120,
        "source": {
            "name": "Veenendaal",
            "lon": 5.5556559118736475,
            "lat": 52.02367981445097
        },
        "target": {
            "name": "Rotterdam",
            "lon": 4.316847752645658,
            "lat": 51.925429094518364
        },
        "process": "incineration",
        "period": "2021-Q2",
        "type": "primary waste process"
    },
    {
        "amount": 20700,
        "source": {
            "name": "Vianen",
            "lon": 5.11142425015519,
            "lat": 51.96940836814236
        },
        "target": {
            "name": "Midden-Drenthe",
            "lon": 6.542666255270569,
            "lat": 52.86740520712986
        },
        "process": "incineration",
        "period": "2021-Q2",
        "type": "primary waste process"
    },
    {
        "amount": 409480,
        "source": {
            "name": "Woerden",
            "lon": 4.8988871248707655,
            "lat": 52.10694088575098
        },
        "target": {
            "name": "Beuningen",
            "lon": 5.740270399910066,
            "lat": 51.862813033423656
        },
        "process": "incineration",
        "period": "2021-Q2",
        "type": "primary waste process"
    },
    {
        "amount": 106760,
        "source": {
            "name": "Woerden",
            "lon": 4.8988871248707655,
            "lat": 52.10694088575098
        },
        "target": {
            "name": "Dordrecht",
            "lon": 4.709578864026262,
            "lat": 51.78204680298166
        },
        "process": "incineration",
        "period": "2021-Q2",
        "type": "primary waste process"
    },
    {
        "amount": 5560,
        "source": {
            "name": "Woerden",
            "lon": 4.8988871248707655,
            "lat": 52.10694088575098
        },
        "target": {
            "name": "Duiven",
            "lon": 6.018177116025047,
            "lat": 51.94655324501759
        },
        "process": "incineration",
        "period": "2021-Q2",
        "type": "primary waste process"
    },
    {
        "amount": 622600,
        "source": {
            "name": "Woerden",
            "lon": 4.8988871248707655,
            "lat": 52.10694088575098
        },
        "target": {
            "name": "Moerdijk",
            "lon": 4.541922858216276,
            "lat": 51.658801585281374
        },
        "process": "incineration",
        "period": "2021-Q2",
        "type": "primary waste process"
    },
    {
        "amount": 29220,
        "source": {
            "name": "Woerden",
            "lon": 4.8988871248707655,
            "lat": 52.10694088575098
        },
        "target": {
            "name": "Rotterdam",
            "lon": 4.316847752645658,
            "lat": 51.925429094518364
        },
        "process": "incineration",
        "period": "2021-Q2",
        "type": "primary waste process"
    },
    {
        "amount": 1440,
        "source": {
            "name": "Zeist",
            "lon": 5.255181841845734,
            "lat": 52.101975704130375
        },
        "target": {
            "name": "Alkmaar",
            "lon": 4.803289225700341,
            "lat": 52.60180952361393
        },
        "process": "incineration",
        "period": "2021-Q2",
        "type": "primary waste process"
    },
    {
        "amount": 7940,
        "source": {
            "name": "Zeist",
            "lon": 5.255181841845734,
            "lat": 52.101975704130375
        },
        "target": {
            "name": "Amsterdam",
            "lon": 4.889974960713057,
            "lat": 52.37265349694298
        },
        "process": "incineration",
        "period": "2021-Q2",
        "type": "primary waste process"
    },
    {
        "amount": 196280,
        "source": {
            "name": "Zeist",
            "lon": 5.255181841845734,
            "lat": 52.101975704130375
        },
        "target": {
            "name": "Duiven",
            "lon": 6.018177116025047,
            "lat": 51.94655324501759
        },
        "process": "incineration",
        "period": "2021-Q2",
        "type": "primary waste process"
    },
    {
        "amount": 21480,
        "source": {
            "name": "Zeist",
            "lon": 5.255181841845734,
            "lat": 52.101975704130375
        },
        "target": {
            "name": "Moerdijk",
            "lon": 4.541922858216276,
            "lat": 51.658801585281374
        },
        "process": "incineration",
        "period": "2021-Q2",
        "type": "primary waste process"
    },
    {
        "amount": 12560,
        "source": {
            "name": "Zeist",
            "lon": 5.255181841845734,
            "lat": 52.101975704130375
        },
        "target": {
            "name": "Rotterdam",
            "lon": 4.316847752645658,
            "lat": 51.925429094518364
        },
        "process": "incineration",
        "period": "2021-Q2",
        "type": "primary waste process"
    },
    {
        "amount": 81,
        "source": {
            "name": "Amersfoort",
            "lon": 5.38469845838697,
            "lat": 52.173656201960775
        },
        "target": {
            "name": "Alphen aan den Rijn",
            "lon": 4.640979414314331,
            "lat": 52.11332282197173
        },
        "process": "landfill",
        "period": "2021-Q2",
        "type": "primary waste process"
    },
    {
        "amount": 2472840,
        "source": {
            "name": "Amersfoort",
            "lon": 5.38469845838697,
            "lat": 52.173656201960775
        },
        "target": {
            "name": "Amersfoort",
            "lon": 5.38469845838697,
            "lat": 52.173656201960775
        },
        "process": "landfill",
        "period": "2021-Q2",
        "type": "primary waste process"
    },
    {
        "amount": 480740,
        "source": {
            "name": "Amersfoort",
            "lon": 5.38469845838697,
            "lat": 52.173656201960775
        },
        "target": {
            "name": "Barneveld",
            "lon": 5.641901986010248,
            "lat": 52.168285438476175
        },
        "process": "landfill",
        "period": "2021-Q2",
        "type": "primary waste process"
    },
    {
        "amount": 54220,
        "source": {
            "name": "Amersfoort",
            "lon": 5.38469845838697,
            "lat": 52.173656201960775
        },
        "target": {
            "name": "Lelystad",
            "lon": 5.472170342466314,
            "lat": 52.47777444553591
        },
        "process": "landfill",
        "period": "2021-Q2",
        "type": "primary waste process"
    },
    {
        "amount": 14600,
        "source": {
            "name": "Baarn",
            "lon": 5.264152829916488,
            "lat": 52.203834168210875
        },
        "target": {
            "name": "Amersfoort",
            "lon": 5.38469845838697,
            "lat": 52.173656201960775
        },
        "process": "landfill",
        "period": "2021-Q2",
        "type": "primary waste process"
    },
    {
        "amount": 14400,
        "source": {
            "name": "Baarn",
            "lon": 5.264152829916488,
            "lat": 52.203834168210875
        },
        "target": {
            "name": "Lelystad",
            "lon": 5.472170342466314,
            "lat": 52.47777444553591
        },
        "process": "landfill",
        "period": "2021-Q2",
        "type": "primary waste process"
    },
    {
        "amount": 577,
        "source": {
            "name": "Bunnik",
            "lon": 5.216923375058714,
            "lat": 52.04092103321746
        },
        "target": {
            "name": "Alphen aan den Rijn",
            "lon": 4.640979414314331,
            "lat": 52.11332282197173
        },
        "process": "landfill",
        "period": "2021-Q2",
        "type": "primary waste process"
    },
    {
        "amount": 18360,
        "source": {
            "name": "Bunnik",
            "lon": 5.216923375058714,
            "lat": 52.04092103321746
        },
        "target": {
            "name": "Amersfoort",
            "lon": 5.38469845838697,
            "lat": 52.173656201960775
        },
        "process": "landfill",
        "period": "2021-Q2",
        "type": "primary waste process"
    },
    {
        "amount": 4140,
        "source": {
            "name": "Bunnik",
            "lon": 5.216923375058714,
            "lat": 52.04092103321746
        },
        "target": {
            "name": "Barneveld",
            "lon": 5.641901986010248,
            "lat": 52.168285438476175
        },
        "process": "landfill",
        "period": "2021-Q2",
        "type": "primary waste process"
    },
    {
        "amount": 3080,
        "source": {
            "name": "Bunschoten",
            "lon": 5.357970197985367,
            "lat": 52.23868219963142
        },
        "target": {
            "name": "Amersfoort",
            "lon": 5.38469845838697,
            "lat": 52.173656201960775
        },
        "process": "landfill",
        "period": "2021-Q2",
        "type": "primary waste process"
    },
    {
        "amount": 1920,
        "source": {
            "name": "Bunschoten",
            "lon": 5.357970197985367,
            "lat": 52.23868219963142
        },
        "target": {
            "name": "Lelystad",
            "lon": 5.472170342466314,
            "lat": 52.47777444553591
        },
        "process": "landfill",
        "period": "2021-Q2",
        "type": "primary waste process"
    },
    {
        "amount": 46640,
        "source": {
            "name": "Bunschoten",
            "lon": 5.357970197985367,
            "lat": 52.23868219963142
        },
        "target": {
            "name": "Maasdriel",
            "lon": 5.2969594580860155,
            "lat": 51.776252216679495
        },
        "process": "landfill",
        "period": "2021-Q2",
        "type": "primary waste process"
    },
    {
        "amount": 20440,
        "source": {
            "name": "Bunschoten",
            "lon": 5.357970197985367,
            "lat": 52.23868219963142
        },
        "target": {
            "name": "Rotterdam",
            "lon": 4.316847752645658,
            "lat": 51.925429094518364
        },
        "process": "landfill",
        "period": "2021-Q2",
        "type": "primary waste process"
    },
    {
        "amount": 7180,
        "source": {
            "name": "Bunschoten",
            "lon": 5.357970197985367,
            "lat": 52.23868219963142
        },
        "target": {
            "name": "Voorst",
            "lon": 6.099081487784298,
            "lat": 52.225604939286015
        },
        "process": "landfill",
        "period": "2021-Q2",
        "type": "primary waste process"
    },
    {
        "amount": 4475,
        "source": {
            "name": "De Bilt",
            "lon": 5.174306046007605,
            "lat": 52.14174148295569
        },
        "target": {
            "name": "Alphen aan den Rijn",
            "lon": 4.640979414314331,
            "lat": 52.11332282197173
        },
        "process": "landfill",
        "period": "2021-Q2",
        "type": "primary waste process"
    },
    {
        "amount": 10340,
        "source": {
            "name": "De Bilt",
            "lon": 5.174306046007605,
            "lat": 52.14174148295569
        },
        "target": {
            "name": "Amersfoort",
            "lon": 5.38469845838697,
            "lat": 52.173656201960775
        },
        "process": "landfill",
        "period": "2021-Q2",
        "type": "primary waste process"
    },
    {
        "amount": 32880,
        "source": {
            "name": "De Bilt",
            "lon": 5.174306046007605,
            "lat": 52.14174148295569
        },
        "target": {
            "name": "Hollands Kroon",
            "lon": 4.949207900526826,
            "lat": 52.829704612122946
        },
        "process": "landfill",
        "period": "2021-Q2",
        "type": "primary waste process"
    },
    {
        "amount": 15740,
        "source": {
            "name": "De Bilt",
            "lon": 5.174306046007605,
            "lat": 52.14174148295569
        },
        "target": {
            "name": "Lelystad",
            "lon": 5.472170342466314,
            "lat": 52.47777444553591
        },
        "process": "landfill",
        "period": "2021-Q2",
        "type": "primary waste process"
    },
    {
        "amount": 7960,
        "source": {
            "name": "De Bilt",
            "lon": 5.174306046007605,
            "lat": 52.14174148295569
        },
        "target": {
            "name": "Voorst",
            "lon": 6.099081487784298,
            "lat": 52.225604939286015
        },
        "process": "landfill",
        "period": "2021-Q2",
        "type": "primary waste process"
    },
    {
        "amount": 90,
        "source": {
            "name": "De Ronde Venen",
            "lon": 4.917327835064022,
            "lat": 52.226343817520174
        },
        "target": {
            "name": "Alphen aan den Rijn",
            "lon": 4.640979414314331,
            "lat": 52.11332282197173
        },
        "process": "landfill",
        "period": "2021-Q2",
        "type": "primary waste process"
    },
    {
        "amount": 667740,
        "source": {
            "name": "De Ronde Venen",
            "lon": 4.917327835064022,
            "lat": 52.226343817520174
        },
        "target": {
            "name": "Amersfoort",
            "lon": 5.38469845838697,
            "lat": 52.173656201960775
        },
        "process": "landfill",
        "period": "2021-Q2",
        "type": "primary waste process"
    },
    {
        "amount": 18880,
        "source": {
            "name": "De Ronde Venen",
            "lon": 4.917327835064022,
            "lat": 52.226343817520174
        },
        "target": {
            "name": "Lelystad",
            "lon": 5.472170342466314,
            "lat": 52.47777444553591
        },
        "process": "landfill",
        "period": "2021-Q2",
        "type": "primary waste process"
    },
    {
        "amount": 111700,
        "source": {
            "name": "De Ronde Venen",
            "lon": 4.917327835064022,
            "lat": 52.226343817520174
        },
        "target": {
            "name": "Rotterdam",
            "lon": 4.316847752645658,
            "lat": 51.925429094518364
        },
        "process": "landfill",
        "period": "2021-Q2",
        "type": "primary waste process"
    },
    {
        "amount": 32960,
        "source": {
            "name": "De Ronde Venen",
            "lon": 4.917327835064022,
            "lat": 52.226343817520174
        },
        "target": {
            "name": "Tilburg",
            "lon": 5.068345482595864,
            "lat": 51.58002722600011
        },
        "process": "landfill",
        "period": "2021-Q2",
        "type": "primary waste process"
    },
    {
        "amount": 16280,
        "source": {
            "name": "De Ronde Venen",
            "lon": 4.917327835064022,
            "lat": 52.226343817520174
        },
        "target": {
            "name": "Voorst",
            "lon": 6.099081487784298,
            "lat": 52.225604939286015
        },
        "process": "landfill",
        "period": "2021-Q2",
        "type": "primary waste process"
    },
    {
        "amount": 16520,
        "source": {
            "name": "Eemnes",
            "lon": 5.279669185493609,
            "lat": 52.249879374680546
        },
        "target": {
            "name": "Amersfoort",
            "lon": 5.38469845838697,
            "lat": 52.173656201960775
        },
        "process": "landfill",
        "period": "2021-Q2",
        "type": "primary waste process"
    },
    {
        "amount": 3680,
        "source": {
            "name": "Eemnes",
            "lon": 5.279669185493609,
            "lat": 52.249879374680546
        },
        "target": {
            "name": "Lelystad",
            "lon": 5.472170342466314,
            "lat": 52.47777444553591
        },
        "process": "landfill",
        "period": "2021-Q2",
        "type": "primary waste process"
    },
    {
        "amount": 4200,
        "source": {
            "name": "Houten",
            "lon": 5.1816978796531545,
            "lat": 52.00410185651591
        },
        "target": {
            "name": "Amersfoort",
            "lon": 5.38469845838697,
            "lat": 52.173656201960775
        },
        "process": "landfill",
        "period": "2021-Q2",
        "type": "primary waste process"
    },
    {
        "amount": 5500,
        "source": {
            "name": "Houten",
            "lon": 5.1816978796531545,
            "lat": 52.00410185651591
        },
        "target": {
            "name": "Barneveld",
            "lon": 5.641901986010248,
            "lat": 52.168285438476175
        },
        "process": "landfill",
        "period": "2021-Q2",
        "type": "primary waste process"
    },
    {
        "amount": 109540,
        "source": {
            "name": "Houten",
            "lon": 5.1816978796531545,
            "lat": 52.00410185651591
        },
        "target": {
            "name": "Lelystad",
            "lon": 5.472170342466314,
            "lat": 52.47777444553591
        },
        "process": "landfill",
        "period": "2021-Q2",
        "type": "primary waste process"
    },
    {
        "amount": 8480,
        "source": {
            "name": "Houten",
            "lon": 5.1816978796531545,
            "lat": 52.00410185651591
        },
        "target": {
            "name": "Tilburg",
            "lon": 5.068345482595864,
            "lat": 51.58002722600011
        },
        "process": "landfill",
        "period": "2021-Q2",
        "type": "primary waste process"
    },
    {
        "amount": 9140,
        "source": {
            "name": "Houten",
            "lon": 5.1816978796531545,
            "lat": 52.00410185651591
        },
        "target": {
            "name": "Voorst",
            "lon": 6.099081487784298,
            "lat": 52.225604939286015
        },
        "process": "landfill",
        "period": "2021-Q2",
        "type": "primary waste process"
    },
    {
        "amount": 300,
        "source": {
            "name": "IJsselstein",
            "lon": 5.028778785161066,
            "lat": 52.027715469121475
        },
        "target": {
            "name": "Amersfoort",
            "lon": 5.38469845838697,
            "lat": 52.173656201960775
        },
        "process": "landfill",
        "period": "2021-Q2",
        "type": "primary waste process"
    },
    {
        "amount": 8320,
        "source": {
            "name": "Leusden",
            "lon": 5.416462425689729,
            "lat": 52.12221994032962
        },
        "target": {
            "name": "Amersfoort",
            "lon": 5.38469845838697,
            "lat": 52.173656201960775
        },
        "process": "landfill",
        "period": "2021-Q2",
        "type": "primary waste process"
    },
    {
        "amount": 7580,
        "source": {
            "name": "Lopik",
            "lon": 4.945542461854009,
            "lat": 51.98535333222892
        },
        "target": {
            "name": "Lelystad",
            "lon": 5.472170342466314,
            "lat": 52.47777444553591
        },
        "process": "landfill",
        "period": "2021-Q2",
        "type": "primary waste process"
    },
    {
        "amount": 3254250,
        "source": {
            "name": "Lopik",
            "lon": 4.945542461854009,
            "lat": 51.98535333222892
        },
        "target": {
            "name": "Rotterdam",
            "lon": 4.316847752645658,
            "lat": 51.925429094518364
        },
        "process": "landfill",
        "period": "2021-Q2",
        "type": "primary waste process"
    },
    {
        "amount": 920,
        "source": {
            "name": "Montfoort",
            "lon": 4.944044638221137,
            "lat": 52.04771077081319
        },
        "target": {
            "name": "Amersfoort",
            "lon": 5.38469845838697,
            "lat": 52.173656201960775
        },
        "process": "landfill",
        "period": "2021-Q2",
        "type": "primary waste process"
    },
    {
        "amount": 26580,
        "source": {
            "name": "Montfoort",
            "lon": 4.944044638221137,
            "lat": 52.04771077081319
        },
        "target": {
            "name": "Barneveld",
            "lon": 5.641901986010248,
            "lat": 52.168285438476175
        },
        "process": "landfill",
        "period": "2021-Q2",
        "type": "primary waste process"
    },
    {
        "amount": 110360,
        "source": {
            "name": "Nieuwegein",
            "lon": 5.094670533990026,
            "lat": 52.030822022092124
        },
        "target": {
            "name": "Amersfoort",
            "lon": 5.38469845838697,
            "lat": 52.173656201960775
        },
        "process": "landfill",
        "period": "2021-Q2",
        "type": "primary waste process"
    },
    {
        "amount": 56140,
        "source": {
            "name": "Nieuwegein",
            "lon": 5.094670533990026,
            "lat": 52.030822022092124
        },
        "target": {
            "name": "Lelystad",
            "lon": 5.472170342466314,
            "lat": 52.47777444553591
        },
        "process": "landfill",
        "period": "2021-Q2",
        "type": "primary waste process"
    },
    {
        "amount": 800,
        "source": {
            "name": "Oudewater",
            "lon": 4.864242048403326,
            "lat": 52.027457963848256
        },
        "target": {
            "name": "Amersfoort",
            "lon": 5.38469845838697,
            "lat": 52.173656201960775
        },
        "process": "landfill",
        "period": "2021-Q2",
        "type": "primary waste process"
    },
    {
        "amount": 5180,
        "source": {
            "name": "Oudewater",
            "lon": 4.864242048403326,
            "lat": 52.027457963848256
        },
        "target": {
            "name": "Hollands Kroon",
            "lon": 4.949207900526826,
            "lat": 52.829704612122946
        },
        "process": "landfill",
        "period": "2021-Q2",
        "type": "primary waste process"
    },
    {
        "amount": 24640,
        "source": {
            "name": "Oudewater",
            "lon": 4.864242048403326,
            "lat": 52.027457963848256
        },
        "target": {
            "name": "Lelystad",
            "lon": 5.472170342466314,
            "lat": 52.47777444553591
        },
        "process": "landfill",
        "period": "2021-Q2",
        "type": "primary waste process"
    },
    {
        "amount": 2340,
        "source": {
            "name": "Renswoude",
            "lon": 5.534165447585518,
            "lat": 52.06895095374423
        },
        "target": {
            "name": "Barneveld",
            "lon": 5.641901986010248,
            "lat": 52.168285438476175
        },
        "process": "landfill",
        "period": "2021-Q2",
        "type": "primary waste process"
    },
    {
        "amount": 5480,
        "source": {
            "name": "Renswoude",
            "lon": 5.534165447585518,
            "lat": 52.06895095374423
        },
        "target": {
            "name": "Voorst",
            "lon": 6.099081487784298,
            "lat": 52.225604939286015
        },
        "process": "landfill",
        "period": "2021-Q2",
        "type": "primary waste process"
    },
    {
        "amount": 109880,
        "source": {
            "name": "Rhenen",
            "lon": 5.5605162443959175,
            "lat": 51.98076721631182
        },
        "target": {
            "name": "Amersfoort",
            "lon": 5.38469845838697,
            "lat": 52.173656201960775
        },
        "process": "landfill",
        "period": "2021-Q2",
        "type": "primary waste process"
    },
    {
        "amount": 9020,
        "source": {
            "name": "Rhenen",
            "lon": 5.5605162443959175,
            "lat": 51.98076721631182
        },
        "target": {
            "name": "Lelystad",
            "lon": 5.472170342466314,
            "lat": 52.47777444553591
        },
        "process": "landfill",
        "period": "2021-Q2",
        "type": "primary waste process"
    },
    {
        "amount": 6520,
        "source": {
            "name": "Rhenen",
            "lon": 5.5605162443959175,
            "lat": 51.98076721631182
        },
        "target": {
            "name": "Voorst",
            "lon": 6.099081487784298,
            "lat": 52.225604939286015
        },
        "process": "landfill",
        "period": "2021-Q2",
        "type": "primary waste process"
    },
    {
        "amount": 39800,
        "source": {
            "name": "Soest",
            "lon": 5.296288897360924,
            "lat": 52.15619845723908
        },
        "target": {
            "name": "Amersfoort",
            "lon": 5.38469845838697,
            "lat": 52.173656201960775
        },
        "process": "landfill",
        "period": "2021-Q2",
        "type": "primary waste process"
    },
    {
        "amount": 13300,
        "source": {
            "name": "Soest",
            "lon": 5.296288897360924,
            "lat": 52.15619845723908
        },
        "target": {
            "name": "Groningen",
            "lon": 6.583550338549972,
            "lat": 53.22343594913792
        },
        "process": "landfill",
        "period": "2021-Q2",
        "type": "primary waste process"
    },
    {
        "amount": 17300,
        "source": {
            "name": "Soest",
            "lon": 5.296288897360924,
            "lat": 52.15619845723908
        },
        "target": {
            "name": "Maasdriel",
            "lon": 5.2969594580860155,
            "lat": 51.776252216679495
        },
        "process": "landfill",
        "period": "2021-Q2",
        "type": "primary waste process"
    },
    {
        "amount": 1858,
        "source": {
            "name": "Stichtse Vecht",
            "lon": 5.012587029988806,
            "lat": 52.1769697628483
        },
        "target": {
            "name": "Alphen aan den Rijn",
            "lon": 4.640979414314331,
            "lat": 52.11332282197173
        },
        "process": "landfill",
        "period": "2021-Q2",
        "type": "primary waste process"
    },
    {
        "amount": 21220,
        "source": {
            "name": "Stichtse Vecht",
            "lon": 5.012587029988806,
            "lat": 52.1769697628483
        },
        "target": {
            "name": "Amersfoort",
            "lon": 5.38469845838697,
            "lat": 52.173656201960775
        },
        "process": "landfill",
        "period": "2021-Q2",
        "type": "primary waste process"
    },
    {
        "amount": 19500,
        "source": {
            "name": "Stichtse Vecht",
            "lon": 5.012587029988806,
            "lat": 52.1769697628483
        },
        "target": {
            "name": "Hollands Kroon",
            "lon": 4.949207900526826,
            "lat": 52.829704612122946
        },
        "process": "landfill",
        "period": "2021-Q2",
        "type": "primary waste process"
    },
    {
        "amount": 241840,
        "source": {
            "name": "Stichtse Vecht",
            "lon": 5.012587029988806,
            "lat": 52.1769697628483
        },
        "target": {
            "name": "Lelystad",
            "lon": 5.472170342466314,
            "lat": 52.47777444553591
        },
        "process": "landfill",
        "period": "2021-Q2",
        "type": "primary waste process"
    },
    {
        "amount": 36980,
        "source": {
            "name": "Stichtse Vecht",
            "lon": 5.012587029988806,
            "lat": 52.1769697628483
        },
        "target": {
            "name": "Maasdriel",
            "lon": 5.2969594580860155,
            "lat": 51.776252216679495
        },
        "process": "landfill",
        "period": "2021-Q2",
        "type": "primary waste process"
    },
    {
        "amount": 3001650,
        "source": {
            "name": "Stichtse Vecht",
            "lon": 5.012587029988806,
            "lat": 52.1769697628483
        },
        "target": {
            "name": "Rotterdam",
            "lon": 4.316847752645658,
            "lat": 51.925429094518364
        },
        "process": "landfill",
        "period": "2021-Q2",
        "type": "primary waste process"
    },
    {
        "amount": 500,
        "source": {
            "name": "Stichtse Vecht",
            "lon": 5.012587029988806,
            "lat": 52.1769697628483
        },
        "target": {
            "name": "Stichtse Vecht",
            "lon": 5.012587029988806,
            "lat": 52.1769697628483
        },
        "process": "landfill",
        "period": "2021-Q2",
        "type": "primary waste process"
    },
    {
        "amount": 10080,
        "source": {
            "name": "Stichtse Vecht",
            "lon": 5.012587029988806,
            "lat": 52.1769697628483
        },
        "target": {
            "name": "Voorst",
            "lon": 6.099081487784298,
            "lat": 52.225604939286015
        },
        "process": "landfill",
        "period": "2021-Q2",
        "type": "primary waste process"
    },
    {
        "amount": 9916,
        "source": {
            "name": "Utrecht",
            "lon": 5.074745542978898,
            "lat": 52.09113829631701
        },
        "target": {
            "name": "Alphen aan den Rijn",
            "lon": 4.640979414314331,
            "lat": 52.11332282197173
        },
        "process": "landfill",
        "period": "2021-Q2",
        "type": "primary waste process"
    },
    {
        "amount": 185720,
        "source": {
            "name": "Utrecht",
            "lon": 5.074745542978898,
            "lat": 52.09113829631701
        },
        "target": {
            "name": "Amersfoort",
            "lon": 5.38469845838697,
            "lat": 52.173656201960775
        },
        "process": "landfill",
        "period": "2021-Q2",
        "type": "primary waste process"
    },
    {
        "amount": 5760,
        "source": {
            "name": "Utrecht",
            "lon": 5.074745542978898,
            "lat": 52.09113829631701
        },
        "target": {
            "name": "Barneveld",
            "lon": 5.641901986010248,
            "lat": 52.168285438476175
        },
        "process": "landfill",
        "period": "2021-Q2",
        "type": "primary waste process"
    },
    {
        "amount": 14440,
        "source": {
            "name": "Utrecht",
            "lon": 5.074745542978898,
            "lat": 52.09113829631701
        },
        "target": {
            "name": "Borsele",
            "lon": 3.8129627663098513,
            "lat": 51.44522730749938
        },
        "process": "landfill",
        "period": "2021-Q2",
        "type": "primary waste process"
    },
    {
        "amount": 15820,
        "source": {
            "name": "Utrecht",
            "lon": 5.074745542978898,
            "lat": 52.09113829631701
        },
        "target": {
            "name": "Hollands Kroon",
            "lon": 4.949207900526826,
            "lat": 52.829704612122946
        },
        "process": "landfill",
        "period": "2021-Q2",
        "type": "primary waste process"
    },
    {
        "amount": 19989080,
        "source": {
            "name": "Utrecht",
            "lon": 5.074745542978898,
            "lat": 52.09113829631701
        },
        "target": {
            "name": "Lelystad",
            "lon": 5.472170342466314,
            "lat": 52.47777444553591
        },
        "process": "landfill",
        "period": "2021-Q2",
        "type": "primary waste process"
    },
    {
        "amount": 132400,
        "source": {
            "name": "Utrecht",
            "lon": 5.074745542978898,
            "lat": 52.09113829631701
        },
        "target": {
            "name": "Rotterdam",
            "lon": 4.316847752645658,
            "lat": 51.925429094518364
        },
        "process": "landfill",
        "period": "2021-Q2",
        "type": "primary waste process"
    },
    {
        "amount": 7400,
        "source": {
            "name": "Utrecht",
            "lon": 5.074745542978898,
            "lat": 52.09113829631701
        },
        "target": {
            "name": "Tilburg",
            "lon": 5.068345482595864,
            "lat": 51.58002722600011
        },
        "process": "landfill",
        "period": "2021-Q2",
        "type": "primary waste process"
    },
    {
        "amount": 43700,
        "source": {
            "name": "Utrecht",
            "lon": 5.074745542978898,
            "lat": 52.09113829631701
        },
        "target": {
            "name": "Voorst",
            "lon": 6.099081487784298,
            "lat": 52.225604939286015
        },
        "process": "landfill",
        "period": "2021-Q2",
        "type": "primary waste process"
    },
    {
        "amount": 7680,
        "source": {
            "name": "Utrecht",
            "lon": 5.074745542978898,
            "lat": 52.09113829631701
        },
        "target": {
            "name": "Zaanstad",
            "lon": 4.7730018495883835,
            "lat": 52.46291342192686
        },
        "process": "landfill",
        "period": "2021-Q2",
        "type": "primary waste process"
    },
    {
        "amount": 89480,
        "source": {
            "name": "Utrechtse Heuvelrug",
            "lon": 5.388289325925499,
            "lat": 52.034706085918806
        },
        "target": {
            "name": "Amersfoort",
            "lon": 5.38469845838697,
            "lat": 52.173656201960775
        },
        "process": "landfill",
        "period": "2021-Q2",
        "type": "primary waste process"
    },
    {
        "amount": 120,
        "source": {
            "name": "Utrechtse Heuvelrug",
            "lon": 5.388289325925499,
            "lat": 52.034706085918806
        },
        "target": {
            "name": "Barneveld",
            "lon": 5.641901986010248,
            "lat": 52.168285438476175
        },
        "process": "landfill",
        "period": "2021-Q2",
        "type": "primary waste process"
    },
    {
        "amount": 6000,
        "source": {
            "name": "Utrechtse Heuvelrug",
            "lon": 5.388289325925499,
            "lat": 52.034706085918806
        },
        "target": {
            "name": "Heerenveen",
            "lon": 5.977910820379612,
            "lat": 52.99598653685977
        },
        "process": "landfill",
        "period": "2021-Q2",
        "type": "primary waste process"
    },
    {
        "amount": 130940,
        "source": {
            "name": "Utrechtse Heuvelrug",
            "lon": 5.388289325925499,
            "lat": 52.034706085918806
        },
        "target": {
            "name": "Utrechtse Heuvelrug",
            "lon": 5.388289325925499,
            "lat": 52.034706085918806
        },
        "process": "landfill",
        "period": "2021-Q2",
        "type": "primary waste process"
    },
    {
        "amount": 17760,
        "source": {
            "name": "Utrechtse Heuvelrug",
            "lon": 5.388289325925499,
            "lat": 52.034706085918806
        },
        "target": {
            "name": "Voorst",
            "lon": 6.099081487784298,
            "lat": 52.225604939286015
        },
        "process": "landfill",
        "period": "2021-Q2",
        "type": "primary waste process"
    },
    {
        "amount": 1287,
        "source": {
            "name": "Veenendaal",
            "lon": 5.5556559118736475,
            "lat": 52.02367981445097
        },
        "target": {
            "name": "Alphen aan den Rijn",
            "lon": 4.640979414314331,
            "lat": 52.11332282197173
        },
        "process": "landfill",
        "period": "2021-Q2",
        "type": "primary waste process"
    },
    {
        "amount": 19880,
        "source": {
            "name": "Veenendaal",
            "lon": 5.5556559118736475,
            "lat": 52.02367981445097
        },
        "target": {
            "name": "Amersfoort",
            "lon": 5.38469845838697,
            "lat": 52.173656201960775
        },
        "process": "landfill",
        "period": "2021-Q2",
        "type": "primary waste process"
    },
    {
        "amount": 1520,
        "source": {
            "name": "Veenendaal",
            "lon": 5.5556559118736475,
            "lat": 52.02367981445097
        },
        "target": {
            "name": "Barneveld",
            "lon": 5.641901986010248,
            "lat": 52.168285438476175
        },
        "process": "landfill",
        "period": "2021-Q2",
        "type": "primary waste process"
    },
    {
        "amount": 88060,
        "source": {
            "name": "Veenendaal",
            "lon": 5.5556559118736475,
            "lat": 52.02367981445097
        },
        "target": {
            "name": "Hollands Kroon",
            "lon": 4.949207900526826,
            "lat": 52.829704612122946
        },
        "process": "landfill",
        "period": "2021-Q2",
        "type": "primary waste process"
    },
    {
        "amount": 28700,
        "source": {
            "name": "Veenendaal",
            "lon": 5.5556559118736475,
            "lat": 52.02367981445097
        },
        "target": {
            "name": "Lelystad",
            "lon": 5.472170342466314,
            "lat": 52.47777444553591
        },
        "process": "landfill",
        "period": "2021-Q2",
        "type": "primary waste process"
    },
    {
        "amount": 90520,
        "source": {
            "name": "Veenendaal",
            "lon": 5.5556559118736475,
            "lat": 52.02367981445097
        },
        "target": {
            "name": "Rotterdam",
            "lon": 4.316847752645658,
            "lat": 51.925429094518364
        },
        "process": "landfill",
        "period": "2021-Q2",
        "type": "primary waste process"
    },
    {
        "amount": 9480,
        "source": {
            "name": "Veenendaal",
            "lon": 5.5556559118736475,
            "lat": 52.02367981445097
        },
        "target": {
            "name": "Tilburg",
            "lon": 5.068345482595864,
            "lat": 51.58002722600011
        },
        "process": "landfill",
        "period": "2021-Q2",
        "type": "primary waste process"
    },
    {
        "amount": 400,
        "source": {
            "name": "Vianen",
            "lon": 5.11142425015519,
            "lat": 51.96940836814236
        },
        "target": {
            "name": "Amersfoort",
            "lon": 5.38469845838697,
            "lat": 52.173656201960775
        },
        "process": "landfill",
        "period": "2021-Q2",
        "type": "primary waste process"
    },
    {
        "amount": 2800,
        "source": {
            "name": "Vianen",
            "lon": 5.11142425015519,
            "lat": 51.96940836814236
        },
        "target": {
            "name": "Lelystad",
            "lon": 5.472170342466314,
            "lat": 52.47777444553591
        },
        "process": "landfill",
        "period": "2021-Q2",
        "type": "primary waste process"
    },
    {
        "amount": 321350,
        "source": {
            "name": "Vianen",
            "lon": 5.11142425015519,
            "lat": 51.96940836814236
        },
        "target": {
            "name": "Rotterdam",
            "lon": 4.316847752645658,
            "lat": 51.925429094518364
        },
        "process": "landfill",
        "period": "2021-Q2",
        "type": "primary waste process"
    },
    {
        "amount": 18400,
        "source": {
            "name": "Vianen",
            "lon": 5.11142425015519,
            "lat": 51.96940836814236
        },
        "target": {
            "name": "Tilburg",
            "lon": 5.068345482595864,
            "lat": 51.58002722600011
        },
        "process": "landfill",
        "period": "2021-Q2",
        "type": "primary waste process"
    },
    {
        "amount": 12120,
        "source": {
            "name": "Wijk bij Duurstede",
            "lon": 5.325256174880094,
            "lat": 51.98920088155075
        },
        "target": {
            "name": "Amersfoort",
            "lon": 5.38469845838697,
            "lat": 52.173656201960775
        },
        "process": "landfill",
        "period": "2021-Q2",
        "type": "primary waste process"
    },
    {
        "amount": 52400,
        "source": {
            "name": "Wijk bij Duurstede",
            "lon": 5.325256174880094,
            "lat": 51.98920088155075
        },
        "target": {
            "name": "Maasdriel",
            "lon": 5.2969594580860155,
            "lat": 51.776252216679495
        },
        "process": "landfill",
        "period": "2021-Q2",
        "type": "primary waste process"
    },
    {
        "amount": 11600,
        "source": {
            "name": "Woerden",
            "lon": 4.8988871248707655,
            "lat": 52.10694088575098
        },
        "target": {
            "name": "Amersfoort",
            "lon": 5.38469845838697,
            "lat": 52.173656201960775
        },
        "process": "landfill",
        "period": "2021-Q2",
        "type": "primary waste process"
    },
    {
        "amount": 30580,
        "source": {
            "name": "Woerden",
            "lon": 4.8988871248707655,
            "lat": 52.10694088575098
        },
        "target": {
            "name": "Lelystad",
            "lon": 5.472170342466314,
            "lat": 52.47777444553591
        },
        "process": "landfill",
        "period": "2021-Q2",
        "type": "primary waste process"
    },
    {
        "amount": 34360,
        "source": {
            "name": "Woudenberg",
            "lon": 5.4266299689863375,
            "lat": 52.081152392000725
        },
        "target": {
            "name": "Amersfoort",
            "lon": 5.38469845838697,
            "lat": 52.173656201960775
        },
        "process": "landfill",
        "period": "2021-Q2",
        "type": "primary waste process"
    },
    {
        "amount": 60,
        "source": {
            "name": "Woudenberg",
            "lon": 5.4266299689863375,
            "lat": 52.081152392000725
        },
        "target": {
            "name": "Barneveld",
            "lon": 5.641901986010248,
            "lat": 52.168285438476175
        },
        "process": "landfill",
        "period": "2021-Q2",
        "type": "primary waste process"
    },
    {
        "amount": 720,
        "source": {
            "name": "Zeist",
            "lon": 5.255181841845734,
            "lat": 52.101975704130375
        },
        "target": {
            "name": "Alphen aan den Rijn",
            "lon": 4.640979414314331,
            "lat": 52.11332282197173
        },
        "process": "landfill",
        "period": "2021-Q2",
        "type": "primary waste process"
    },
    {
        "amount": 92920,
        "source": {
            "name": "Zeist",
            "lon": 5.255181841845734,
            "lat": 52.101975704130375
        },
        "target": {
            "name": "Amersfoort",
            "lon": 5.38469845838697,
            "lat": 52.173656201960775
        },
        "process": "landfill",
        "period": "2021-Q2",
        "type": "primary waste process"
    },
    {
        "amount": 7820,
        "source": {
            "name": "Zeist",
            "lon": 5.255181841845734,
            "lat": 52.101975704130375
        },
        "target": {
            "name": "Lelystad",
            "lon": 5.472170342466314,
            "lat": 52.47777444553591
        },
        "process": "landfill",
        "period": "2021-Q2",
        "type": "primary waste process"
    },
    {
        "amount": 23160,
        "source": {
            "name": "Amersfoort",
            "lon": 5.38469845838697,
            "lat": 52.173656201960775
        },
        "target": {
            "name": "Almelo",
            "lon": 6.658197513609583,
            "lat": 52.347902461155996
        },
        "process": "recycling",
        "period": "2021-Q2",
        "type": "primary waste process"
    },
    {
        "amount": 63630,
        "source": {
            "name": "Amersfoort",
            "lon": 5.38469845838697,
            "lat": 52.173656201960775
        },
        "target": {
            "name": "Almere",
            "lon": 5.246665871637561,
            "lat": 52.36720720570683
        },
        "process": "recycling",
        "period": "2021-Q2",
        "type": "primary waste process"
    },
    {
        "amount": 18792983,
        "source": {
            "name": "Amersfoort",
            "lon": 5.38469845838697,
            "lat": 52.173656201960775
        },
        "target": {
            "name": "Amersfoort",
            "lon": 5.38469845838697,
            "lat": 52.173656201960775
        },
        "process": "recycling",
        "period": "2021-Q2",
        "type": "primary waste process"
    },
    {
        "amount": 10507430,
        "source": {
            "name": "Amersfoort",
            "lon": 5.38469845838697,
            "lat": 52.173656201960775
        },
        "target": {
            "name": "Amsterdam",
            "lon": 4.889974960713057,
            "lat": 52.37265349694298
        },
        "process": "recycling",
        "period": "2021-Q2",
        "type": "primary waste process"
    },
    {
        "amount": 28400,
        "source": {
            "name": "Amersfoort",
            "lon": 5.38469845838697,
            "lat": 52.173656201960775
        },
        "target": {
            "name": "Barendrecht",
            "lon": 4.525436839985877,
            "lat": 51.85106590727215
        },
        "process": "recycling",
        "period": "2021-Q2",
        "type": "primary waste process"
    },
    {
        "amount": 640,
        "source": {
            "name": "Amersfoort",
            "lon": 5.38469845838697,
            "lat": 52.173656201960775
        },
        "target": {
            "name": "Berg en Dal",
            "lon": 5.94981815321825,
            "lat": 51.81998378078863
        },
        "process": "recycling",
        "period": "2021-Q2",
        "type": "primary waste process"
    },
    {
        "amount": 1420,
        "source": {
            "name": "Amersfoort",
            "lon": 5.38469845838697,
            "lat": 52.173656201960775
        },
        "target": {
            "name": "Bergen op Zoom",
            "lon": 4.288292392796187,
            "lat": 51.50347231473239
        },
        "process": "recycling",
        "period": "2021-Q2",
        "type": "primary waste process"
    },
    {
        "amount": 972,
        "source": {
            "name": "Amersfoort",
            "lon": 5.38469845838697,
            "lat": 52.173656201960775
        },
        "target": {
            "name": "Beuningen",
            "lon": 5.740270399910066,
            "lat": 51.862813033423656
        },
        "process": "recycling",
        "period": "2021-Q2",
        "type": "primary waste process"
    },
    {
        "amount": 736,
        "source": {
            "name": "Amersfoort",
            "lon": 5.38469845838697,
            "lat": 52.173656201960775
        },
        "target": {
            "name": "Binnenmaas",
            "lon": 4.535199584147078,
            "lat": 51.79503556599509
        },
        "process": "recycling",
        "period": "2021-Q2",
        "type": "primary waste process"
    },
    {
        "amount": 2009,
        "source": {
            "name": "Amersfoort",
            "lon": 5.38469845838697,
            "lat": 52.173656201960775
        },
        "target": {
            "name": "Boxtel",
            "lon": 5.326575275886618,
            "lat": 51.57825568640152
        },
        "process": "recycling",
        "period": "2021-Q2",
        "type": "primary waste process"
    },
    {
        "amount": 1283580,
        "source": {
            "name": "Amersfoort",
            "lon": 5.38469845838697,
            "lat": 52.173656201960775
        },
        "target": {
            "name": "Breda",
            "lon": 4.761429987769865,
            "lat": 51.585132458218304
        },
        "process": "recycling",
        "period": "2021-Q2",
        "type": "primary waste process"
    },
    {
        "amount": 693419,
        "source": {
            "name": "Amersfoort",
            "lon": 5.38469845838697,
            "lat": 52.173656201960775
        },
        "target": {
            "name": "Bunschoten",
            "lon": 5.357970197985367,
            "lat": 52.23868219963142
        },
        "process": "recycling",
        "period": "2021-Q2",
        "type": "primary waste process"
    },
    {
        "amount": 86530,
        "source": {
            "name": "Amersfoort",
            "lon": 5.38469845838697,
            "lat": 52.173656201960775
        },
        "target": {
            "name": "Buren",
            "lon": 5.4036557915550345,
            "lat": 51.938320813013355
        },
        "process": "recycling",
        "period": "2021-Q2",
        "type": "primary waste process"
    },
    {
        "amount": 7300,
        "source": {
            "name": "Amersfoort",
            "lon": 5.38469845838697,
            "lat": 52.173656201960775
        },
        "target": {
            "name": "De Ronde Venen",
            "lon": 4.917327835064022,
            "lat": 52.226343817520174
        },
        "process": "recycling",
        "period": "2021-Q2",
        "type": "primary waste process"
    },
    {
        "amount": 216900,
        "source": {
            "name": "Amersfoort",
            "lon": 5.38469845838697,
            "lat": 52.173656201960775
        },
        "target": {
            "name": "Delfzijl",
            "lon": 6.929925121216071,
            "lat": 53.32002567557951
        },
        "process": "recycling",
        "period": "2021-Q2",
        "type": "primary waste process"
    },
    {
        "amount": 80540,
        "source": {
            "name": "Amersfoort",
            "lon": 5.38469845838697,
            "lat": 52.173656201960775
        },
        "target": {
            "name": "Diemen",
            "lon": 4.986965729456585,
            "lat": 52.33647503391449
        },
        "process": "recycling",
        "period": "2021-Q2",
        "type": "primary waste process"
    },
    {
        "amount": 17365,
        "source": {
            "name": "Amersfoort",
            "lon": 5.38469845838697,
            "lat": 52.173656201960775
        },
        "target": {
            "name": "Dordrecht",
            "lon": 4.709578864026262,
            "lat": 51.78204680298166
        },
        "process": "recycling",
        "period": "2021-Q2",
        "type": "primary waste process"
    },
    {
        "amount": 3300,
        "source": {
            "name": "Amersfoort",
            "lon": 5.38469845838697,
            "lat": 52.173656201960775
        },
        "target": {
            "name": "Dronten",
            "lon": 5.701783310305491,
            "lat": 52.50233006768441
        },
        "process": "recycling",
        "period": "2021-Q2",
        "type": "primary waste process"
    },
    {
        "amount": 1622,
        "source": {
            "name": "Amersfoort",
            "lon": 5.38469845838697,
            "lat": 52.173656201960775
        },
        "target": {
            "name": "Duiven",
            "lon": 6.018177116025047,
            "lat": 51.94655324501759
        },
        "process": "recycling",
        "period": "2021-Q2",
        "type": "primary waste process"
    },
    {
        "amount": 10637,
        "source": {
            "name": "Amersfoort",
            "lon": 5.38469845838697,
            "lat": 52.173656201960775
        },
        "target": {
            "name": "Ede",
            "lon": 5.728037348328103,
            "lat": 52.07642304593253
        },
        "process": "recycling",
        "period": "2021-Q2",
        "type": "primary waste process"
    },
    {
        "amount": 40390,
        "source": {
            "name": "Amersfoort",
            "lon": 5.38469845838697,
            "lat": 52.173656201960775
        },
        "target": {
            "name": "Eemnes",
            "lon": 5.279669185493609,
            "lat": 52.249879374680546
        },
        "process": "recycling",
        "period": "2021-Q2",
        "type": "primary waste process"
    },
    {
        "amount": 249780,
        "source": {
            "name": "Amersfoort",
            "lon": 5.38469845838697,
            "lat": 52.173656201960775
        },
        "target": {
            "name": "Eemsmond",
            "lon": 6.674379404483829,
            "lat": 53.42061071343611
        },
        "process": "recycling",
        "period": "2021-Q2",
        "type": "primary waste process"
    },
    {
        "amount": 34016,
        "source": {
            "name": "Amersfoort",
            "lon": 5.38469845838697,
            "lat": 52.173656201960775
        },
        "target": {
            "name": "Eindhoven",
            "lon": 5.45886396210915,
            "lat": 51.4500265392449
        },
        "process": "recycling",
        "period": "2021-Q2",
        "type": "primary waste process"
    },
    {
        "amount": 1579290,
        "source": {
            "name": "Amersfoort",
            "lon": 5.38469845838697,
            "lat": 52.173656201960775
        },
        "target": {
            "name": "Ermelo",
            "lon": 5.6682275033957,
            "lat": 52.28769827150865
        },
        "process": "recycling",
        "period": "2021-Q2",
        "type": "primary waste process"
    },
    {
        "amount": 159940,
        "source": {
            "name": "Amersfoort",
            "lon": 5.38469845838697,
            "lat": 52.173656201960775
        },
        "target": {
            "name": "Gorinchem",
            "lon": 4.9770785074563335,
            "lat": 51.83845942939786
        },
        "process": "recycling",
        "period": "2021-Q2",
        "type": "primary waste process"
    },
    {
        "amount": 567740,
        "source": {
            "name": "Amersfoort",
            "lon": 5.38469845838697,
            "lat": 52.173656201960775
        },
        "target": {
            "name": "Halderberge",
            "lon": 4.523117837850475,
            "lat": 51.59053678526035
        },
        "process": "recycling",
        "period": "2021-Q2",
        "type": "primary waste process"
    },
    {
        "amount": 81970,
        "source": {
            "name": "Amersfoort",
            "lon": 5.38469845838697,
            "lat": 52.173656201960775
        },
        "target": {
            "name": "Harderwijk",
            "lon": 5.655252642973027,
            "lat": 52.33946908221651
        },
        "process": "recycling",
        "period": "2021-Q2",
        "type": "primary waste process"
    },
    {
        "amount": 515780,
        "source": {
            "name": "Amersfoort",
            "lon": 5.38469845838697,
            "lat": 52.173656201960775
        },
        "target": {
            "name": "Helmond",
            "lon": 5.656962659240464,
            "lat": 51.47614961515901
        },
        "process": "recycling",
        "period": "2021-Q2",
        "type": "primary waste process"
    },
    {
        "amount": 11440,
        "source": {
            "name": "Amersfoort",
            "lon": 5.38469845838697,
            "lat": 52.173656201960775
        },
        "target": {
            "name": "Hengelo",
            "lon": 6.778222743511161,
            "lat": 52.25491825909896
        },
        "process": "recycling",
        "period": "2021-Q2",
        "type": "primary waste process"
    },
    {
        "amount": 19190,
        "source": {
            "name": "Amersfoort",
            "lon": 5.38469845838697,
            "lat": 52.173656201960775
        },
        "target": {
            "name": "Hilversum",
            "lon": 5.167939292663076,
            "lat": 52.22327512233715
        },
        "process": "recycling",
        "period": "2021-Q2",
        "type": "primary waste process"
    },
    {
        "amount": 400940,
        "source": {
            "name": "Amersfoort",
            "lon": 5.38469845838697,
            "lat": 52.173656201960775
        },
        "target": {
            "name": "Hof van Twente",
            "lon": 6.589990764099817,
            "lat": 52.23643372282089
        },
        "process": "recycling",
        "period": "2021-Q2",
        "type": "primary waste process"
    },
    {
        "amount": 147300,
        "source": {
            "name": "Amersfoort",
            "lon": 5.38469845838697,
            "lat": 52.173656201960775
        },
        "target": {
            "name": "Houten",
            "lon": 5.1816978796531545,
            "lat": 52.00410185651591
        },
        "process": "recycling",
        "period": "2021-Q2",
        "type": "primary waste process"
    },
    {
        "amount": 63560,
        "source": {
            "name": "Amersfoort",
            "lon": 5.38469845838697,
            "lat": 52.173656201960775
        },
        "target": {
            "name": "Huizen",
            "lon": 5.231842292213701,
            "lat": 52.29219764077458
        },
        "process": "recycling",
        "period": "2021-Q2",
        "type": "primary waste process"
    },
    {
        "amount": 4380,
        "source": {
            "name": "Amersfoort",
            "lon": 5.38469845838697,
            "lat": 52.173656201960775
        },
        "target": {
            "name": "Hulst",
            "lon": 4.066262996300575,
            "lat": 51.32174239516407
        },
        "process": "recycling",
        "period": "2021-Q2",
        "type": "primary waste process"
    },
    {
        "amount": 271,
        "source": {
            "name": "Amersfoort",
            "lon": 5.38469845838697,
            "lat": 52.173656201960775
        },
        "target": {
            "name": "Kerkrade",
            "lon": 6.050979371100738,
            "lat": 50.87182865552729
        },
        "process": "recycling",
        "period": "2021-Q2",
        "type": "primary waste process"
    },
    {
        "amount": 6560,
        "source": {
            "name": "Amersfoort",
            "lon": 5.38469845838697,
            "lat": 52.173656201960775
        },
        "target": {
            "name": "Krimpen aan den IJssel",
            "lon": 4.60210429911427,
            "lat": 51.91469605702348
        },
        "process": "recycling",
        "period": "2021-Q2",
        "type": "primary waste process"
    },
    {
        "amount": 12255,
        "source": {
            "name": "Amersfoort",
            "lon": 5.38469845838697,
            "lat": 52.173656201960775
        },
        "target": {
            "name": "Lelystad",
            "lon": 5.472170342466314,
            "lat": 52.47777444553591
        },
        "process": "recycling",
        "period": "2021-Q2",
        "type": "primary waste process"
    },
    {
        "amount": 4169,
        "source": {
            "name": "Amersfoort",
            "lon": 5.38469845838697,
            "lat": 52.173656201960775
        },
        "target": {
            "name": "Lopik",
            "lon": 4.945542461854009,
            "lat": 51.98535333222892
        },
        "process": "recycling",
        "period": "2021-Q2",
        "type": "primary waste process"
    },
    {
        "amount": 90680,
        "source": {
            "name": "Amersfoort",
            "lon": 5.38469845838697,
            "lat": 52.173656201960775
        },
        "target": {
            "name": "Midden-Drenthe",
            "lon": 6.542666255270569,
            "lat": 52.86740520712986
        },
        "process": "recycling",
        "period": "2021-Q2",
        "type": "primary waste process"
    },
    {
        "amount": 1006780,
        "source": {
            "name": "Amersfoort",
            "lon": 5.38469845838697,
            "lat": 52.173656201960775
        },
        "target": {
            "name": "Moerdijk",
            "lon": 4.541922858216276,
            "lat": 51.658801585281374
        },
        "process": "recycling",
        "period": "2021-Q2",
        "type": "primary waste process"
    },
    {
        "amount": 7552920,
        "source": {
            "name": "Amersfoort",
            "lon": 5.38469845838697,
            "lat": 52.173656201960775
        },
        "target": {
            "name": "Nieuwegein",
            "lon": 5.094670533990026,
            "lat": 52.030822022092124
        },
        "process": "recycling",
        "period": "2021-Q2",
        "type": "primary waste process"
    },
    {
        "amount": 23270,
        "source": {
            "name": "Amersfoort",
            "lon": 5.38469845838697,
            "lat": 52.173656201960775
        },
        "target": {
            "name": "Nijkerk",
            "lon": 5.4856904287038315,
            "lat": 52.21083816790596
        },
        "process": "recycling",
        "period": "2021-Q2",
        "type": "primary waste process"
    },
    {
        "amount": 20760,
        "source": {
            "name": "Amersfoort",
            "lon": 5.38469845838697,
            "lat": 52.173656201960775
        },
        "target": {
            "name": "Nijmegen",
            "lon": 5.836773481788743,
            "lat": 51.83850663579355
        },
        "process": "recycling",
        "period": "2021-Q2",
        "type": "primary waste process"
    },
    {
        "amount": 42200,
        "source": {
            "name": "Amersfoort",
            "lon": 5.38469845838697,
            "lat": 52.173656201960775
        },
        "target": {
            "name": "Oudewater",
            "lon": 4.864242048403326,
            "lat": 52.027457963848256
        },
        "process": "recycling",
        "period": "2021-Q2",
        "type": "primary waste process"
    },
    {
        "amount": 15220,
        "source": {
            "name": "Amersfoort",
            "lon": 5.38469845838697,
            "lat": 52.173656201960775
        },
        "target": {
            "name": "Putten",
            "lon": 5.5843048151163,
            "lat": 52.24322781894232
        },
        "process": "recycling",
        "period": "2021-Q2",
        "type": "primary waste process"
    },
    {
        "amount": 7964,
        "source": {
            "name": "Amersfoort",
            "lon": 5.38469845838697,
            "lat": 52.173656201960775
        },
        "target": {
            "name": "Roosendaal",
            "lon": 4.4245178555849725,
            "lat": 51.5131976978065
        },
        "process": "recycling",
        "period": "2021-Q2",
        "type": "primary waste process"
    },
    {
        "amount": 166920,
        "source": {
            "name": "Amersfoort",
            "lon": 5.38469845838697,
            "lat": 52.173656201960775
        },
        "target": {
            "name": "Rotterdam",
            "lon": 4.316847752645658,
            "lat": 51.925429094518364
        },
        "process": "recycling",
        "period": "2021-Q2",
        "type": "primary waste process"
    },
    {
        "amount": 3040,
        "source": {
            "name": "Amersfoort",
            "lon": 5.38469845838697,
            "lat": 52.173656201960775
        },
        "target": {
            "name": "Scherpenzeel",
            "lon": 5.500493412565268,
            "lat": 52.08932413449843
        },
        "process": "recycling",
        "period": "2021-Q2",
        "type": "primary waste process"
    },
    {
        "amount": 2900,
        "source": {
            "name": "Amersfoort",
            "lon": 5.38469845838697,
            "lat": 52.173656201960775
        },
        "target": {
            "name": "Schiedam",
            "lon": 4.385257531723617,
            "lat": 51.92676121692786
        },
        "process": "recycling",
        "period": "2021-Q2",
        "type": "primary waste process"
    },
    {
        "amount": 94900,
        "source": {
            "name": "Amersfoort",
            "lon": 5.38469845838697,
            "lat": 52.173656201960775
        },
        "target": {
            "name": "Sittard-Geleen",
            "lon": 5.828193218649134,
            "lat": 51.0048719992308
        },
        "process": "recycling",
        "period": "2021-Q2",
        "type": "primary waste process"
    },
    {
        "amount": 7536,
        "source": {
            "name": "Amersfoort",
            "lon": 5.38469845838697,
            "lat": 52.173656201960775
        },
        "target": {
            "name": "Smallingerland",
            "lon": 6.038961215895858,
            "lat": 53.113411819582105
        },
        "process": "recycling",
        "period": "2021-Q2",
        "type": "primary waste process"
    },
    {
        "amount": 8906160,
        "source": {
            "name": "Amersfoort",
            "lon": 5.38469845838697,
            "lat": 52.173656201960775
        },
        "target": {
            "name": "Soest",
            "lon": 5.296288897360924,
            "lat": 52.15619845723908
        },
        "process": "recycling",
        "period": "2021-Q2",
        "type": "primary waste process"
    },
    {
        "amount": 4928650,
        "source": {
            "name": "Amersfoort",
            "lon": 5.38469845838697,
            "lat": 52.173656201960775
        },
        "target": {
            "name": "Tiel",
            "lon": 5.40687878342656,
            "lat": 51.88508448661611
        },
        "process": "recycling",
        "period": "2021-Q2",
        "type": "primary waste process"
    },
    {
        "amount": 155590,
        "source": {
            "name": "Amersfoort",
            "lon": 5.38469845838697,
            "lat": 52.173656201960775
        },
        "target": {
            "name": "Uden",
            "lon": 5.6518291811692,
            "lat": 51.6554869099723
        },
        "process": "recycling",
        "period": "2021-Q2",
        "type": "primary waste process"
    },
    {
        "amount": 3045260,
        "source": {
            "name": "Amersfoort",
            "lon": 5.38469845838697,
            "lat": 52.173656201960775
        },
        "target": {
            "name": "Utrecht",
            "lon": 5.074745542978898,
            "lat": 52.09113829631701
        },
        "process": "recycling",
        "period": "2021-Q2",
        "type": "primary waste process"
    },
    {
        "amount": 6723020,
        "source": {
            "name": "Amersfoort",
            "lon": 5.38469845838697,
            "lat": 52.173656201960775
        },
        "target": {
            "name": "Voorst",
            "lon": 6.099081487784298,
            "lat": 52.225604939286015
        },
        "process": "recycling",
        "period": "2021-Q2",
        "type": "primary waste process"
    },
    {
        "amount": 348,
        "source": {
            "name": "Amersfoort",
            "lon": 5.38469845838697,
            "lat": 52.173656201960775
        },
        "target": {
            "name": "Waalwijk",
            "lon": 5.0118204627686955,
            "lat": 51.69231418555242
        },
        "process": "recycling",
        "period": "2021-Q2",
        "type": "primary waste process"
    },
    {
        "amount": 6760,
        "source": {
            "name": "Amersfoort",
            "lon": 5.38469845838697,
            "lat": 52.173656201960775
        },
        "target": {
            "name": "Weert",
            "lon": 5.6916952210117335,
            "lat": 51.23361021688709
        },
        "process": "recycling",
        "period": "2021-Q2",
        "type": "primary waste process"
    },
    {
        "amount": 1100,
        "source": {
            "name": "Amersfoort",
            "lon": 5.38469845838697,
            "lat": 52.173656201960775
        },
        "target": {
            "name": "Werkendam",
            "lon": 4.873124914755092,
            "lat": 51.76709339529761
        },
        "process": "recycling",
        "period": "2021-Q2",
        "type": "primary waste process"
    },
    {
        "amount": 805000,
        "source": {
            "name": "Amersfoort",
            "lon": 5.38469845838697,
            "lat": 52.173656201960775
        },